[
 {
  "id": 1,
  "name": "가야성모의원",
  "address": "서울시 서초구 방배로 175 동성빌딩",
  "phone": "02-532-2345",
  "lat": 126.992405,
  "lng": 37.4891887
 },
 {
  "id": 2,
  "name": "강남우리집의원",
  "address": "서울시 강남구 개포로 229 정원빌딩 2층",
  "phone": "02-2291-8885",
  "lat": 127.047747,
  "lng": 37.4790077
 },
 {
  "id": 3,
  "name": "경찰공제회 강남의원",
  "address": "서울시 강남구 테헤란로114길 23",
  "phone": "02-556-1825",
  "lat": 127.067298,
  "lng": 37.508353
 },
 {
  "id": 4,
  "name": "더불어내과의원",
  "address": "서울시 광진구 긴고랑로 41 공유공간나눔 2층",
  "phone": "02-469-7577",
  "lat": 127.080906,
  "lng": 37.563026
 },
 {
  "id": 5,
  "name": "방배제일병원",
  "address": "서울시 서초구 서초대로 116",
  "phone": "02-586-5557",
  "lat": 126.995062,
  "lng": 37.4878104
 },
 {
  "id": 6,
  "name": "서울중앙의원",
  "address": "서울시 성동구 왕십리로5길 3",
  "phone": "02-497-9095",
  "lat": 127.044372,
  "lng": 37.5462505
 },
 {
  "id": 7,
  "name": "서초엔도내과",
  "address": "서울시 서초구 사임당로 158, 래미안리더스원 307호",
  "phone": "02-6677-2222",
  "lat": 127.027119,
  "lng": 37.4918082
 },
 {
  "id": 8,
  "name": "연세가정의학과의원",
  "address": "서울시 송파구 새말로 136 대명빌딩",
  "phone": "02-400-7450",
  "lat": 127.129099,
  "lng": 37.4830653
 },
 {
  "id": 9,
  "name": "윤준달안과의원",
  "address": "서울시 송파구 올림픽로 130",
  "phone": "02-412-4768",
  "lat": 127.0849,
  "lng": 37.5112791
 },
 {
  "id": 10,
  "name": "중앙보훈병원",
  "address": "서울시 강동구 진황도로61길 53",
  "phone": "02-2225-1526",
  "lat": 127.147698,
  "lng": 37.5296794
 },
 {
  "id": 11,
  "name": "한신메디피아의원",
  "address": "서울시 서초구 잠원로 94 한신빌딩 3층",
  "phone": "1588-3778",
  "lat": 127.007015,
  "lng": 37.5127952
 },
 {
  "id": 12,
  "name": "항석내과의원",
  "address": "서울시 광진구 자양로 201 항석빌딩",
  "phone": "02-454-9114",
  "lat": 127.085391,
  "lng": 37.5455076
 },
 {
  "id": 13,
  "name": "혜민병원",
  "address": "서울시 광진구 자양로 85",
  "phone": "02-2049-9000",
  "lat": 127.083637,
  "lng": 37.5353907
 },
 {
  "id": 14,
  "name": "혜민안과병원",
  "address": "서울시 송파구 중대로 122",
  "phone": "02-3012-1800",
  "lat": 127.121925,
  "lng": 37.4938038
 },
 {
  "id": 15,
  "name": "경희대학교병원",
  "address": "동대문구 경희대로 23",
  "phone": "02-958-8705",
  "lat": 127.05141,
  "lng": 37.5970635
 },
 {
  "id": 16,
  "name": "녹색병원",
  "address": "중랑구 사가정49길 53",
  "phone": "02-490-2347",
  "lat": 127.085875,
  "lng": 37.5835561
 },
 {
  "id": 17,
  "name": "대한병원",
  "address": "강북구 도봉로 301",
  "phone": "02-903-3231",
  "lat": 127.022874,
  "lng": 37.6352468
 },
 {
  "id": 18,
  "name": "도봉적성의원",
  "address": "노원구 동일로 1449",
  "phone": "02-2092-0152",
  "lat": 127.058806,
  "lng": 37.6579485
 },
 {
  "id": 19,
  "name": "동부외과의원",
  "address": "중랑구 사가정로 399",
  "phone": "02-494-1004",
  "lat": 127.0892,
  "lng": 37.5807967
 },
 {
  "id": 20,
  "name": "동부제일병원",
  "address": "중랑구 망우로 511",
  "phone": "02-437-5011",
  "lat": 127.109245,
  "lng": 37.6007459
 },
 {
  "id": 21,
  "name": "동서병원",
  "address": "성북구 동소문로 306",
  "phone": "02-942-3611",
  "lat": 127.02888,
  "lng": 37.6069097
 },
 {
  "id": 22,
  "name": "동인의원",
  "address": "노원구 노해로 457",
  "phone": "02-951-5678",
  "lat": 127.058724,
  "lng": 37.6541914
 },
 {
  "id": 23,
  "name": "서울나은병원",
  "address": "동대문구 왕산로 137",
  "phone": "02-6714-9500",
  "lat": 127.038696,
  "lng": 37.5785259
 },
 {
  "id": 24,
  "name": "서울성심병원",
  "address": "동대문구 왕산로 259",
  "phone": "02-966-1616",
  "lat": 127.049941,
  "lng": 37.5842881
 },
 {
  "id": 25,
  "name": "서울의료원",
  "address": "중랑구 신내로 156",
  "phone": "02-2276-7157",
  "lat": 127.09728,
  "lng": 37.6130637
 },
 {
  "id": 26,
  "name": "서울의원",
  "address": "서울특별시 노원구 월계로 328",
  "phone": "02-993-2161",
  "lat": 127.057311,
  "lng": 37.6287665
 },
 {
  "id": 27,
  "name": "서울현대병원",
  "address": "강북구 도봉로 374",
  "phone": "02-900-0092",
  "lat": 127.028541,
  "lng": 37.6402371
 },
 {
  "id": 28,
  "name": "성북중앙병원",
  "address": "성북구 종암로 72",
  "phone": "02-919-3404",
  "lat": 127.035523,
  "lng": 37.596943
 },
 {
  "id": 29,
  "name": "성신의원",
  "address": "강북구 도봉로 181",
  "phone": "02-989-2198",
  "lat": 127.026292,
  "lng": 37.6249299
 },
 {
  "id": 30,
  "name": "스마일내과",
  "address": "강북구 삼양로 433",
  "phone": "02-900-6675",
  "lat": 127.016339,
  "lng": 37.6421583
 },
 {
  "id": 31,
  "name": "스카이서울안과",
  "address": "노원구 한글비석로 270",
  "phone": "02-951-1001",
  "lat": 127.077408,
  "lng": 37.651541
 },
 {
  "id": 32,
  "name": "신일병원",
  "address": "강북구 덕릉로 73",
  "phone": "02-903-5121",
  "lat": 127.021809,
  "lng": 37.6347695
 },
 {
  "id": 33,
  "name": "유덕기내과",
  "address": "도봉구 방학로 183",
  "phone": "02-956-9831",
  "lat": 127.032017,
  "lng": 37.6619228
 },
 {
  "id": 34,
  "name": "을지병원",
  "address": "노원구 한글비석로 68",
  "phone": "02-970-8428",
  "lat": 127.069904,
  "lng": 37.6364452
 },
 {
  "id": 35,
  "name": "이수현내과",
  "address": "도봉구 해등로 255",
  "phone": "02-903-0092",
  "lat": 127.028219,
  "lng": 37.6573557
 },
 {
  "id": 36,
  "name": "카톨릭대학교 성바오로병원",
  "address": "서울특별시 동대문구 왕산로 179",
  "phone": "02-958-2387",
  "lat": 127.042931,
  "lng": 37.5797498
 },
 {
  "id": 37,
  "name": "프라임병원",
  "address": "중랑구 공릉로 76",
  "phone": "02-975-7500",
  "lat": 127.079446,
  "lng": 37.6172123
 },
 {
  "id": 38,
  "name": "365 밝은 안과",
  "address": "서울 관악구 신림로 350, 서원프라자 3층",
  "phone": "02-878-3650",
  "lat": 126.929947,
  "lng": 37.4855004
 },
 {
  "id": 39,
  "name": "강안과의원",
  "address": "서울 강서구 공항대로 426",
  "phone": "02-2606-8449",
  "lat": 126.854237,
  "lng": 37.5547891
 },
 {
  "id": 40,
  "name": "김포연세안과의원",
  "address": "경기 김포시 김포한강4로 117, 홍우프라자 6층",
  "phone": "031-986-7375",
  "lat": 126.667999,
  "lng": 37.644175
 },
 {
  "id": 41,
  "name": "조은안과의원",
  "address": "서울 강서구 강서로 259",
  "phone": "02-2693-1110",
  "lat": 126.835995,
  "lng": 37.5488635
 },
 {
  "id": 42,
  "name": "경찰공제회서부의원",
  "address": "서울 마포구 월드컵로 42길 13(서부면허시험장)",
  "phone": "02-374-5956",
  "lat": 126.880794,
  "lng": 37.5787315
 },
 {
  "id": 43,
  "name": "금강아산병원",
  "address": "서울 용산구 이촌로 318",
  "phone": "02-799-5163",
  "lat": 126.981757,
  "lng": 37.517587
 },
 {
  "id": 44,
  "name": "서울의원",
  "address": "서울 종로구 종로 199-2",
  "phone": "02-762-7424",
  "lat": 126.999934,
  "lng": 37.5711257
 },
 {
  "id": 45,
  "name": "세브란스의원",
  "address": "서울 은평구 응암로 181",
  "phone": "02-309-9111",
  "lat": 126.916523,
  "lng": 37.5881869
 },
 {
  "id": 46,
  "name": "소망의원",
  "address": "서울 중구 퇴계로45 남일물산 202호",
  "phone": "02-318-2075",
  "lat": 126.977525,
  "lng": 37.5583833
 },
 {
  "id": 47,
  "name": "소화아동병원",
  "address": "서울 용산구 서계 224-32",
  "phone": "02-705-9100",
  "lat": 126.968654,
  "lng": 37.55375
 },
 {
  "id": 48,
  "name": "순천향병원의대부속병원",
  "address": "서울 용산 한남 657",
  "phone": "02-709-9452",
  "lat": 127.00515,
  "lng": 37.5375096
 },
 {
  "id": 49,
  "name": "영락내과의원",
  "address": "서울 중구 저동2가 50-1",
  "phone": "02-2272-9211",
  "lat": 126.990019,
  "lng": 37.5631874
 },
 {
  "id": 50,
  "name": "이내과의원",
  "address": "서울 마포구 양화로 64",
  "phone": "02-336-8994",
  "lat": 126.915875,
  "lng": 37.5502818
 },
 {
  "id": 51,
  "name": "이안과의원",
  "address": "서울 마포구 서강로 144",
  "phone": "02-715-2606",
  "lat": 126.936558,
  "lng": 37.5544576
 },
 {
  "id": 52,
  "name": "적십자병원",
  "address": "서울 종로 새문안로 9",
  "phone": "02-2002-8777",
  "lat": 126.966939,
  "lng": 37.5672914
 },
 {
  "id": 53,
  "name": "청구성심병원",
  "address": "서울 은평구 통일로 873",
  "phone": "02-353-5511",
  "lat": 126.919408,
  "lng": 37.6207325
 },
 {
  "id": 54,
  "name": "하나로의원",
  "address": "서울특별시 종로구 청진동 70 그량서울타워1",
  "phone": "02-590-1111",
  "lat": 126.981415,
  "lng": 37.5709438
 },
 {
  "id": 55,
  "name": "강지윤 안과의원",
  "address": "연제구 과정로 111",
  "phone": "051-761-1001",
  "lat": 129.106796,
  "lng": 35.1813936
 },
 {
  "id": 56,
  "name": "광혜병원",
  "address": "동래구 충렬대로 96",
  "phone": "051-503-2111",
  "lat": 129.070881,
  "lng": 35.2068665
 },
 {
  "id": 57,
  "name": "굿모닝 백이안과의원",
  "address": "부산진구 중앙대로724 하나금융프라자",
  "phone": "051-862-0102",
  "lat": 129.059945,
  "lng": 35.1572553
 },
 {
  "id": 58,
  "name": "금정구보건소",
  "address": "금정구 중앙대로 1777",
  "phone": "051-519-5051",
  "lat": 129.092381,
  "lng": 35.2428761
 },
 {
  "id": 59,
  "name": "기장군보건소",
  "address": "기장군 기장읍 기장대로 560",
  "phone": "051-709-4791",
  "lat": 129.222583,
  "lng": 35.2443313
 },
 {
  "id": 60,
  "name": "기장군보건소 정관지소",
  "address": "기장군 정관읍 용수로 11",
  "phone": "051-709-2935",
  "lat": 129.179186,
  "lng": 35.3252116
 },
 {
  "id": 61,
  "name": "남구보건소",
  "address": "남구 못골로 23",
  "phone": "051-607-6460",
  "lat": 129.08497,
  "lng": 35.1360107
 },
 {
  "id": 62,
  "name": "대한결핵협회 부산광역시지부복십자의원",
  "address": "남구 수영로 299 4층",
  "phone": "051-611-3622",
  "lat": 129.098888,
  "lng": 35.1371853
 },
 {
  "id": 63,
  "name": "대한산업보건협회 부산의원",
  "address": "금정구 중앙대로 2139",
  "phone": "051-508-6088",
  "lat": 129.092261,
  "lng": 35.2754092
 },
 {
  "id": 64,
  "name": "동구보건소",
  "address": "동구 구청로 1",
  "phone": "051-440-6500",
  "lat": 129.04543,
  "lng": 35.1292678
 },
 {
  "id": 65,
  "name": "동래구보건소",
  "address": "동래구 명륜로187번길 56",
  "phone": "051-555-4000",
  "lat": 129.079707,
  "lng": 35.2115454
 },
 {
  "id": 66,
  "name": "동의의료원",
  "address": "부산진구 양정로 62",
  "phone": "051-867-5101",
  "lat": 129.07634,
  "lng": 35.1689608
 },
 {
  "id": 67,
  "name": "박성인안과의원",
  "address": "동래구 금강공원로 5-1",
  "phone": "051-552-0110",
  "lat": 129.083622,
  "lng": 35.2182097
 },
 {
  "id": 68,
  "name": "봉생병원",
  "address": "동구 중앙대로 401",
  "phone": "051-664-4000",
  "lat": 129.050489,
  "lng": 35.1310838
 },
 {
  "id": 69,
  "name": "부산성모병원",
  "address": "남구 용호로 232번길 25-14",
  "phone": "051-933-7114",
  "lat": 129.111124,
  "lng": 35.1088389
 },
 {
  "id": 70,
  "name": "부산의료원",
  "address": "연제구 월드컵대로 359",
  "phone": "051-507-3000",
  "lat": 129.060059,
  "lng": 35.187442
 },
 {
  "id": 71,
  "name": "부산진보건소",
  "address": "부산진구 황령대로 8번길 36",
  "phone": "051-645-4000",
  "lat": 129.059775,
  "lng": 35.1461379
 },
 {
  "id": 72,
  "name": "새안락병원",
  "address": "동래구 안락로 94",
  "phone": "051-524-2111",
  "lat": 129.107373,
  "lng": 35.199073
 },
 {
  "id": 73,
  "name": "서면메디칼 정근안과",
  "address": "부산진구 가야대로 767 서면메디칼센터",
  "phone": "051-668-8000",
  "lat": 129.055511,
  "lng": 35.1580695
 },
 {
  "id": 74,
  "name": "서울정형외과의원",
  "address": "동래구 충렬대로 233 서울정형외과의원빌딩",
  "phone": "051-552-0675",
  "lat": 129.084881,
  "lng": 35.2017692
 },
 {
  "id": 75,
  "name": "성가병원",
  "address": "진구 범일로 133",
  "phone": "051-645-9771",
  "lat": 129.059036,
  "lng": 35.1420862
 },
 {
  "id": 76,
  "name": "수영구보건소",
  "address": "수영구 수영로 637-5",
  "phone": "051-752-4000",
  "lat": 129.113565,
  "lng": 35.162595
 },
 {
  "id": 77,
  "name": "신남부의원",
  "address": "남구 용호로 16 남부운전면허시험장 별관",
  "phone": "051-303-2250",
  "lat": 129.105431,
  "lng": 35.1271322
 },
 {
  "id": 78,
  "name": "연산내과의원",
  "address": "연제구 월드컵대로 9",
  "phone": "051-866-0688",
  "lat": 129.085922,
  "lng": 35.1754738
 },
 {
  "id": 79,
  "name": "연제구보건소",
  "address": "연제구 연제로 2 (연산2동)",
  "phone": "051-665-4781",
  "lat": 129.079631,
  "lng": 35.1762578
 },
 {
  "id": 80,
  "name": "오성병원",
  "address": "부산진구 중앙대로 910",
  "phone": "051-850-0800",
  "lat": 129.070376,
  "lng": 35.1713788
 },
 {
  "id": 81,
  "name": "인구보건복지협회",
  "address": "수영구 수영로 425",
  "phone": "051-624-5583",
  "lat": 129.10894,
  "lng": 35.1441209
 },
 {
  "id": 82,
  "name": "재강의원",
  "address": "부산진구 전포대로 138",
  "phone": "051-802-1919",
  "lat": 129.066126,
  "lng": 35.1491118
 },
 {
  "id": 83,
  "name": "한국건강관리협회부산지부",
  "address": "동래구 충렬대로 145(온천2동 1438-2)",
  "phone": "0507-1442-6401",
  "lat": 129.076553,
  "lng": 35.2053997
 },
 {
  "id": 84,
  "name": "한나여성아이병원",
  "address": "수영구 황령대로 481번길 7",
  "phone": "051-625-2300",
  "lat": 129.107049,
  "lng": 35.1392876
 },
 {
  "id": 85,
  "name": "한양 류마디 병원",
  "address": "연제구 과정로 272",
  "phone": "051-752-1990",
  "lat": 129.097689,
  "lng": 35.1883282
 },
 {
  "id": 86,
  "name": "해운대보건소",
  "address": "해운대구 양운로 37번길 59(좌동)",
  "phone": "051-746-4000",
  "lat": 129.178915,
  "lng": 35.1639697
 },
 {
  "id": 87,
  "name": "해운대보건소 반송지소",
  "address": "해운대구 반송로 853",
  "phone": "051-544-4000",
  "lat": 129.147231,
  "lng": 35.2297684
 },
 {
  "id": 88,
  "name": "효성시티병원",
  "address": "해운대구 해운대로 135",
  "phone": "051-709-3000",
  "lat": 129.121549,
  "lng": 35.1852273
 },
 {
  "id": 89,
  "name": "효원플러스 의원",
  "address": "금정구 부산대학로38번길 47(장전동)",
  "phone": "051-510-7383",
  "lat": 129.087566,
  "lng": 35.233326
 },
 {
  "id": 90,
  "name": "갑을녹산병원",
  "address": "부산광역시 강서구 녹산산단321로 24-8",
  "phone": "051-974-8463",
  "lat": 128.853237,
  "lng": 35.0905602
 },
 {
  "id": 91,
  "name": "경희병원",
  "address": "부산광역시 사하구 다대로 321",
  "phone": "051-265-7575",
  "lat": 128.976821,
  "lng": 35.0735324
 },
 {
  "id": 92,
  "name": "부산교도소부속의원",
  "address": "부산광역시 강서구 대저중앙로 29번길 62",
  "phone": "051-971-0151",
  "lat": 128.976821,
  "lng": 35.0735324
 },
 {
  "id": 93,
  "name": "부산구치소의원",
  "address": "부산광역시 사상구 학장로 268 (703)",
  "phone": "051-324-5501",
  "lat": 128.996966,
  "lng": 35.1458102
 },
 {
  "id": 94,
  "name": "부산보훈병원",
  "address": "부산광역시 사상구 백양대로 420",
  "phone": "051-601-6000",
  "lat": 129.006894,
  "lng": 35.1537838
 },
 {
  "id": 95,
  "name": "북부의원",
  "address": "부산광역시 사상구 사상로 367번길 35",
  "phone": "051-926-0332",
  "lat": 128.983092,
  "lng": 35.1772094
 },
 {
  "id": 96,
  "name": "세광의원",
  "address": "부산광역시 서구 충무대로 169",
  "phone": "051-255-6986",
  "lat": 129.024213,
  "lng": 35.0856918
 },
 {
  "id": 97,
  "name": "세림신경외과의원",
  "address": "부산광역시 사하구 사하로 163",
  "phone": "051-262-4600",
  "lat": 128.993461,
  "lng": 35.0965106
 },
 {
  "id": 98,
  "name": "영도병원",
  "address": "부산광역시 영도구 태종로 85",
  "phone": "051-412-8881",
  "lat": 129.040525,
  "lng": 35.0922224
 },
 {
  "id": 99,
  "name": "장림한서병원",
  "address": "부산광역시 사하구 다대로 315",
  "phone": "051-264-5940",
  "lat": 128.976935,
  "lng": 35.0741434
 },
 {
  "id": 100,
  "name": "하나병원",
  "address": "부산광역시 사하구 다대로 311",
  "phone": "051-266-2600",
  "lat": 128.976997,
  "lng": 35.0744668
 },
 {
  "id": 101,
  "name": "해양병원",
  "address": "부산광역시 중구 충장대로 13번길 31",
  "phone": "051-466-0008",
  "lat": 129.038412,
  "lng": 35.1082266
 },
 {
  "id": 102,
  "name": "가남현대의원",
  "address": "경기도 여주시 가남읍 태평로 56 가남터미널",
  "phone": "031-884-8275",
  "lat": 127.544147,
  "lng": 37.2047898
 },
 {
  "id": 103,
  "name": "강남병원",
  "address": "경기도 용인시 기흥구 중부대로 411",
  "phone": "031-300-0114",
  "lat": 127.111505,
  "lng": 37.2736322
 },
 {
  "id": 104,
  "name": "강남의원",
  "address": "경기도 화성시 정남면 만년로 540",
  "phone": "031-352-9480",
  "lat": 126.983638,
  "lng": 37.1694494
 },
 {
  "id": 105,
  "name": "경기도의료원 안성병원",
  "address": "경기도 안성시 남파로 95",
  "phone": "031-804-5000",
  "lat": 127.260225,
  "lng": 37.0170871
 },
 {
  "id": 106,
  "name": "경기도의료원수원병원",
  "address": "경기도 수원시 장안구 수성로245번길 69",
  "phone": "031-888-0114",
  "lat": 126.996387,
  "lng": 37.2919743
 },
 {
  "id": 107,
  "name": "경기도의료원이천병원",
  "address": "경기 이천시 경충대로 2742 ",
  "phone": "031-630-4200",
  "lat": 127.432903,
  "lng": 37.2826821
 },
 {
  "id": 108,
  "name": "경성의원",
  "address": "경기도 화성시 향남읍 평4길 6-5",
  "phone": "031-353-1163",
  "lat": 126.90962,
  "lng": 37.1303004
 },
 {
  "id": 109,
  "name": "국군수도병원(군인전용)",
  "address": "경기도 성남시 분당구 새마을로177번길 81",
  "phone": "1688-9151",
  "lat": 127.14715,
  "lng": 37.3930786
 },
 {
  "id": 110,
  "name": "뉴선두연합내과의원",
  "address": "경기도 이천시 장호원읍 장터로83번길 43",
  "phone": "031-643-5300",
  "lat": 127.63329,
  "lng": 37.1176951
 },
 {
  "id": 111,
  "name": "다나가정의원",
  "address": "경기도 수원시 영통구 동탄원천로1109번길 37 한국아파트 1차상가 205호",
  "phone": "031-212-2575",
  "lat": 127.05648,
  "lng": 37.2690843
 },
 {
  "id": 112,
  "name": "다나움의원",
  "address": "경기도 성남시 수정구 수정로 174",
  "phone": "031-754-7100",
  "lat": 127.13928,
  "lng": 37.442824
 },
 {
  "id": 113,
  "name": "다보스병원",
  "address": "경기도 용인시 처인구 백옥대로1082번길 18",
  "phone": "031-802-2114",
  "lat": 127.211397,
  "lng": 37.2316079
 },
 {
  "id": 114,
  "name": "대진요양병원",
  "address": "경기도 여주시 강천면 강천로 702",
  "phone": "031-887-0900",
  "lat": 127.693044,
  "lng": 37.2630401
 },
 {
  "id": 115,
  "name": "동수원병원",
  "address": "경기도 수원시 팔달구 중부대로 165",
  "phone": "031-210-0114",
  "lat": 127.033879,
  "lng": 37.2786346
 },
 {
  "id": 116,
  "name": "동수원삼성메디칼의원",
  "address": "경기도 수원시 팔달구 중부대로223번길 61",
  "phone": "031-216-7582",
  "lat": 127.04096,
  "lng": 37.2785874
 },
 {
  "id": 117,
  "name": "박동수외과의원",
  "address": "경기도 화성시 효행로 1385",
  "phone": "031-204-8275",
  "lat": 127.065321,
  "lng": 37.23102
 },
 {
  "id": 118,
  "name": "박애병원",
  "address": "경기도 평택시 평택2로20번길 3",
  "phone": "031-652-2121",
  "lat": 127.088981,
  "lng": 36.9931071
 },
 {
  "id": 119,
  "name": "발안제일의원",
  "address": "경기도 화성시 향남읍 발안로 103-6 J&H빌딩 3층",
  "phone": "031-352-3711",
  "lat": 126.921975,
  "lng": 37.131724
 },
 {
  "id": 120,
  "name": "백성병원",
  "address": "경기도 수원시 팔달구 인계로 102",
  "phone": "031-238-9121",
  "lat": 127.028361,
  "lng": 37.2678236
 },
 {
  "id": 121,
  "name": "병점메디칼의원",
  "address": "경기도 화성시 경기대로 1008",
  "phone": "031-224-7102",
  "lat": 127.036754,
  "lng": 37.206046
 },
 {
  "id": 122,
  "name": "본플러스병원",
  "address": "경기도 성남시 분당구 정자로 13",
  "phone": "031-714-0141",
  "lat": 127.106286,
  "lng": 37.3637037
 },
 {
  "id": 123,
  "name": "분당차병원",
  "address": "경기도 성남시 분당구 야탑로 59",
  "phone": "1577-4488",
  "lat": 127.125225,
  "lng": 37.4102319
 },
 {
  "id": 124,
  "name": "삼성메디칼정형외과",
  "address": "경기도 성남시 분당구 야탑로 59",
  "phone": "031-273-9119",
  "lat": 127.125225,
  "lng": 37.4102319
 },
 {
  "id": 125,
  "name": "새소망병원",
  "address": "경기도 성남시 수정구 성남대로 1219",
  "phone": "031-721-7317",
  "lat": 127.127441,
  "lng": 37.4386114
 },
 {
  "id": 126,
  "name": "새연세정형외과의원",
  "address": "경기도 수원시 장안구 파장로 91",
  "phone": "031-242-3375",
  "lat": 126.990712,
  "lng": 37.3072103
 },
 {
  "id": 127,
  "name": "서울 제일병원",
  "address": "경기도 평택시 안중읍 안현로 429",
  "phone": "031-686-7271",
  "lat": 126.931493,
  "lng": 36.9881178
 },
 {
  "id": 128,
  "name": "서울정형외과의원",
  "address": "경기도 성남시 중원구 희망로 316",
  "phone": "031-748-8976",
  "lat": 127.159105,
  "lng": 37.4343567
 },
 {
  "id": 129,
  "name": "성남성심 연합영상의원",
  "address": "경기도 성남시 중원구 둔촌대로 387",
  "phone": "031-732-3300",
  "lat": 127.160064,
  "lng": 37.4336526
 },
 {
  "id": 130,
  "name": "성남중앙병원",
  "address": "경기도 성남시 중원구 산성대로476번길 12",
  "phone": "1577-7986",
  "lat": 127.162082,
  "lng": 37.4527333
 },
 {
  "id": 131,
  "name": "성모자혜의원",
  "address": "경기도 평택시 서정역로36번길 11-3",
  "phone": "031-611-2432",
  "lat": 127.056473,
  "lng": 37.0576164
 },
 {
  "id": 132,
  "name": "성모정형외과의원",
  "address": "경기도 화성시 향남읍 삼천병마로 177",
  "phone": "031-352-5871",
  "lat": 126.909048,
  "lng": 37.1293178
 },
 {
  "id": 133,
  "name": "성심중앙병원",
  "address": "경기도 평택시 안중읍 안현로서6길 16",
  "phone": "031-681-1119",
  "lat": 126.927644,
  "lng": 36.9841327
 },
 {
  "id": 134,
  "name": "세원정형외과의원",
  "address": "경기도 평택시 안중읍 안현로서6길 16",
  "phone": "031-254-7582",
  "lat": 126.927644,
  "lng": 36.9841327
 },
 {
  "id": 135,
  "name": "수원중앙병원",
  "address": "경기도 수원시 권선구 권선로 654",
  "phone": "031-229-9777",
  "lat": 127.022801,
  "lng": 37.2599046
 },
 {
  "id": 136,
  "name": "신병원",
  "address": "경기도 수원시 권선구 매송고색로 724",
  "phone": "031-294-7575",
  "lat": 126.983697,
  "lng": 37.2513454
 },
 {
  "id": 137,
  "name": "아주대학교병원",
  "address": "경기도 수원시 영통구 월드컵로 164",
  "phone": "1688-6114",
  "lat": 127.048211,
  "lng": 37.2800625
 },
 {
  "id": 138,
  "name": "안성동인병원",
  "address": "경기도 안성시 인지1길 9",
  "phone": "031-677-0300",
  "lat": 127.266937,
  "lng": 37.0052862
 },
 {
  "id": 139,
  "name": "안성성모병원",
  "address": "경기도 안성시 시장길 58",
  "phone": "031-675-6007",
  "lat": 127.271042,
  "lng": 37.0062321
 },
 {
  "id": 140,
  "name": "안성시 보건소",
  "address": "경기 안성시 강변로74번길 18",
  "phone": "031-802-8650",
  "lat": 127.269953,
  "lng": 37.0001703
 },
 {
  "id": 141,
  "name": "안중백병원",
  "address": "경기도 평택시 안중읍 서동대로 1931-21",
  "phone": "031-683-9117",
  "lat": 126.958757,
  "lng": 37.0034581
 },
 {
  "id": 142,
  "name": "안중보건지소",
  "address": "경기도 평택시 안중읍 안현로서9길 24",
  "phone": "031-802-8003",
  "lat": 126.922304,
  "lng": 36.9780921
 },
 {
  "id": 143,
  "name": "여주교도소부속의원",
  "address": "경기도 여주시 가남읍 양화로 105-5",
  "phone": "031-884-7800",
  "lat": 127.554595,
  "lng": 37.2332952
 },
 {
  "id": 144,
  "name": "여주보건소",
  "address": "경기 여주시 여흥로160번길 14",
  "phone": "031-887-3681",
  "lat": 127.639784,
  "lng": 37.2943974
 },
 {
  "id": 145,
  "name": "연세모두병원",
  "address": "경기도 성남시 분당구 장미로 78 3층",
  "phone": "031-781-9229",
  "lat": 127.129546,
  "lng": 37.413498
 },
 {
  "id": 146,
  "name": "연세안과의원",
  "address": "경기도 하남시 신장로 126",
  "phone": "031-791-1001",
  "lat": 127.204198,
  "lng": 37.5382545
 },
 {
  "id": 147,
  "name": "오산성심의원",
  "address": "경기도 오산시 경기대로 268",
  "phone": "031-372-1115",
  "lat": 127.07393,
  "lng": 37.148461
 },
 {
  "id": 148,
  "name": "오산시보건소",
  "address": "경기 오산시 경기동로 59",
  "phone": "031-803-6049",
  "lat": 127.077813,
  "lng": 37.1594424
 },
 {
  "id": 149,
  "name": "오산한국병원",
  "address": "경기도 오산시 밀머리로1번길 16",
  "phone": "1566-3534",
  "lat": 127.075262,
  "lng": 37.1411887
 },
 {
  "id": 150,
  "name": "용인신체검사의원",
  "address": "경기도 용인시 기흥구 용구대로2267",
  "phone": "031-283-2475",
  "lat": 127.107851,
  "lng": 37.2892504
 },
 {
  "id": 151,
  "name": "이안의원",
  "address": "경기도 이천시 설봉로 28",
  "phone": "031-631-7901",
  "lat": 127.437763,
  "lng": 37.2788349
 },
 {
  "id": 152,
  "name": "이천보건소",
  "address": "경기 이천시 증신로153번길 13",
  "phone": "031-644-4073",
  "lat": 127.452278,
  "lng": 37.288863
 },
 {
  "id": 153,
  "name": "이천파티마병원",
  "address": "경기도 이천시 경충대로 2560-2",
  "phone": "031-635-2624",
  "lat": 127.449049,
  "lng": 37.2747832
 },
 {
  "id": 154,
  "name": "정음의원",
  "address": "경기도 평택시 서정역로 48",
  "phone": "031-611-8282",
  "lat": 127.05536,
  "lng": 37.0584459
 },
 {
  "id": 155,
  "name": "제일신경외과",
  "address": "경기도 여주시 세종로45번길 6",
  "phone": "031-885-6600",
  "lat": 127.636675,
  "lng": 37.293459
 },
 {
  "id": 156,
  "name": "제일정형외과의원",
  "address": "경기도 광주시 중앙로154번길 5",
  "phone": "031-761-3200",
  "lat": 127.257448,
  "lng": 37.4132811
 },
 {
  "id": 157,
  "name": "조암성모의원",
  "address": "경기도 화성시 우정읍 조암남로33번길 5",
  "phone": "031-358-7550",
  "lat": 126.818475,
  "lng": 37.0843129
 },
 {
  "id": 158,
  "name": "조은형외과의원",
  "address": "경기도 여주시 청심로 161",
  "phone": "031-886-7114",
  "lat": 127.638119,
  "lng": 37.297587
 },
 {
  "id": 159,
  "name": "중앙성심병원",
  "address": "경기도 평택시 안중읍 안현로서6길 16",
  "phone": "031-681-1119",
  "lat": 126.927644,
  "lng": 36.9841327
 },
 {
  "id": 160,
  "name": "중앙의원 평택",
  "address": "경기도 평택시 탄현로 317",
  "phone": "031-666-3369",
  "lat": 127.055252,
  "lng": 37.0807293
 },
 {
  "id": 161,
  "name": "태전성모내과의원",
  "address": "경기도 광주시 태전동로 23",
  "phone": "0407-1372-7975",
  "lat": 127.233961,
  "lng": 37.3866326
 },
 {
  "id": 162,
  "name": "평택보건소",
  "address": "경기 평택시 평택5로 56",
  "phone": "031-802-4421",
  "lat": 127.111826,
  "lng": 36.9907903
 },
 {
  "id": 163,
  "name": "평택시 송탄보건소",
  "address": "경기 평택시 서정로 295",
  "phone": "031-802-7273",
  "lat": 127.066048,
  "lng": 37.0661897
 },
 {
  "id": 164,
  "name": "한국건강관리협회 건강증진의원 경기지부",
  "address": "경기도 수원시 장안구 경수대로 857",
  "phone": "0507-1424-5800",
  "lat": 127.013778,
  "lng": 37.2972177
 },
 {
  "id": 165,
  "name": "한사랑의원 여주",
  "address": "경기도 여주시 여흥로47번길 21",
  "phone": "0507-1354-2394",
  "lat": 127.629812,
  "lng": 37.2995775
 },
 {
  "id": 166,
  "name": "한외과의원 안성",
  "address": "경기도 안성시 중앙로 391",
  "phone": "031-673-4567",
  "lat": 127.270496,
  "lng": 37.007666
 },
 {
  "id": 167,
  "name": "현대정형외과의원 여주",
  "address": "경기도 여주시 여흥로 96",
  "phone": "031-885-3354",
  "lat": 127.633951,
  "lng": 37.2954469
 },
 {
  "id": 168,
  "name": "화성중앙병원",
  "address": "경기도 화성시 향남읍 발안로 5",
  "phone": "031-352-8114",
  "lat": 126.910857,
  "lng": 37.1313376
 },
 {
  "id": 169,
  "name": "화성직업훈련교도소부속의원",
  "address": "경기도 화성시 마도면 화성로 741",
  "phone": "031-357-9400",
  "lat": 126.773484,
  "lng": 37.2094362
 },
 {
  "id": 170,
  "name": "화성현대의원",
  "address": "경기도 화성시 남양읍 현대연구소로 150",
  "phone": "031-368-6327",
  "lat": 126.820579,
  "lng": 37.1549771
 },
 {
  "id": 171,
  "name": "관악연세의원",
  "address": "경기도 안양시 만안구 안양로 496 석수2동주민센터",
  "phone": "031-474-8275",
  "lat": 126.909343,
  "lng": 37.413856
 },
 {
  "id": 172,
  "name": "광명방사선과의원",
  "address": "경기도 광명시 디지털로 19, 서림빌딩 203호",
  "phone": "02-2689-3542",
  "lat": 126.869668,
  "lng": 37.4740239
 },
 {
  "id": 173,
  "name": "근로복지공단 안산병원",
  "address": "경기도 안산시 상록구 구룡로 87",
  "phone": "031-500-1276",
  "lat": 126.874242,
  "lng": 37.3167115
 },
 {
  "id": 174,
  "name": "기둥병원",
  "address": "경기도 안산시 상록수로 34, 뉴라성호텔2층",
  "phone": "031-418-8275",
  "lat": 126.863765,
  "lng": 37.302085
 },
 {
  "id": 175,
  "name": "남천병원",
  "address": "경기도 군포시 고산로 575",
  "phone": "031-390-2114",
  "lat": 126.925896,
  "lng": 37.3646722
 },
 {
  "id": 176,
  "name": "녹향의원",
  "address": "경기도 시흥시 하중로 127",
  "phone": "031-310-5335",
  "lat": 126.800331,
  "lng": 37.3993677
 },
 {
  "id": 177,
  "name": "다니엘병원",
  "address": "경기도 부천시 중동로 361",
  "phone": "032-670-0230",
  "lat": 126.769603,
  "lng": 37.5122796
 },
 {
  "id": 178,
  "name": "동안산병원",
  "address": "경기도 안산시 상록구 월피로 88",
  "phone": "031-410-1116",
  "lat": 126.853017,
  "lng": 37.3358966
 },
 {
  "id": 179,
  "name": "동의성단원병원",
  "address": "경기도 안산시 원포공원1로 20",
  "phone": "031-8040-6600",
  "lat": 126.813239,
  "lng": 37.3002044
 },
 {
  "id": 180,
  "name": "마음속내과의원",
  "address": "경기도 시흥시 정왕대로 230 제일프라자 202-1",
  "phone": "031-506-7000",
  "lat": 126.738462,
  "lng": 37.344942
 },
 {
  "id": 181,
  "name": "메디필 내과의원",
  "address": "경기도 안양시 동안구 경수대로 607",
  "phone": "031-458-7777",
  "lat": 126.95551,
  "lng": 37.3765358
 },
 {
  "id": 182,
  "name": "메트로병원",
  "address": "경기도 안양시 만안구 명학로33번길 8",
  "phone": "031-467-9984",
  "lat": 126.935062,
  "lng": 37.378193
 },
 {
  "id": 183,
  "name": "베스티안 부천병원",
  "address": "경기도 동두천시 평화로2162번길 15",
  "phone": "1588-7876",
  "lat": 127.057001,
  "lng": 37.8808467
 },
 {
  "id": 184,
  "name": "부천대성병원",
  "address": "경기도 부천시 원미구 부천로 91",
  "phone": "032-610-1767",
  "lat": 126.784172,
  "lng": 37.4925304
 },
 {
  "id": 185,
  "name": "부천세종병원",
  "address": "경기도 부천시 소사구 호현로489번길 28",
  "phone": "032-340-1860",
  "lat": 126.791148,
  "lng": 37.4805056
 },
 {
  "id": 186,
  "name": "사랑의병원",
  "address": "경기도 안산시 상록구 예술광장로 69",
  "phone": "031-439-3018",
  "lat": 126.844765,
  "lng": 37.3269839
 },
 {
  "id": 187,
  "name": "삼경의원",
  "address": "경기도 군포시 번영로 514",
  "phone": "031-390-1300",
  "lat": 126.934255,
  "lng": 37.3580817
 },
 {
  "id": 188,
  "name": "샘안양병원",
  "address": "경기도 안양시 만안구 삼덕로 9",
  "phone": "031-463-4370",
  "lat": 126.924535,
  "lng": 37.3935309
 },
 {
  "id": 189,
  "name": "선진병원",
  "address": "경기도 안양시 만안구 안양로 325-1",
  "phone": "031-442-6764",
  "lat": 126.919219,
  "lng": 37.4006544
 },
 {
  "id": 190,
  "name": "성모의원",
  "address": "경기도 군포시 금재로1",
  "phone": "031-459-3270",
  "lat": 126.941679,
  "lng": 37.3624016
 },
 {
  "id": 191,
  "name": "세화병원",
  "address": "경기도 안산시 상록구 용신로 355",
  "phone": "031-407-9200",
  "lat": 126.861543,
  "lng": 37.3020104
 },
 {
  "id": 192,
  "name": "순천향의과대학부속 부천병원",
  "address": "경기도 부천시 원미구 조마루로 170",
  "phone": "032-621-5046",
  "lat": 126.762092,
  "lng": 37.4983532
 },
 {
  "id": 193,
  "name": "시티병원",
  "address": "경기도 의왕시 오전천로 29",
  "phone": "031-340-2110",
  "lat": 126.976812,
  "lng": 37.3503314
 },
 {
  "id": 194,
  "name": "시화병원",
  "address": "경기도 시흥시 옥구천서로 337",
  "phone": "031-8041-5860",
  "lat": 126.724586,
  "lng": 37.3528574
 },
 {
  "id": 195,
  "name": "신태식정형외과의원",
  "address": "경기도 안산시 단원구 화랑로 41",
  "phone": "031-495-1333",
  "lat": 126.796497,
  "lng": 37.3307755
 },
 {
  "id": 196,
  "name": "안산적성의원",
  "address": "경기도 안산시 단원구 순환로 352",
  "phone": "031-481-8427",
  "lat": 126.828363,
  "lng": 37.3449004
 },
 {
  "id": 197,
  "name": "안양세종의원",
  "address": "경기도 안양시 만안구 충훈로 83 (번영빌딩)",
  "phone": "031-472-9391",
  "lat": 126.898926,
  "lng": 37.4074142
 },
 {
  "id": 198,
  "name": "연세속시원의원",
  "address": "경기도 군포시 번영로 502, 409호(산본역사상가)",
  "phone": "031-392-3090",
  "lat": 126.933184,
  "lng": 37.3574865
 },
 {
  "id": 199,
  "name": "연세정형외과",
  "address": "경기도 안양시 동안구 관악대로 226",
  "phone": "031-385-0057",
  "lat": 126.948482,
  "lng": 37.4007612
 },
 {
  "id": 200,
  "name": "영 내과의원",
  "address": "경기도 의왕시 포일세거리로 3, 파레사타워305호",
  "phone": "031-422-0013",
  "lat": 126.984736,
  "lng": 37.3959514
 },
 {
  "id": 201,
  "name": "온누리병원",
  "address": "경기도 안산시 단원구 선부로 201",
  "phone": "031-412-2201",
  "lat": 126.817615,
  "lng": 37.3419108
 },
 {
  "id": 202,
  "name": "의료법인 녹향신천연합병원",
  "address": "경기도 시흥시 복지로 57",
  "phone": "031-310-6328",
  "lat": 126.789362,
  "lng": 37.4445253
 },
 {
  "id": 203,
  "name": "의료법인광명성애병원",
  "address": "경기도 광명시 디지털로 36",
  "phone": "02-2680-7388",
  "lat": 126.871693,
  "lng": 37.4733954
 },
 {
  "id": 204,
  "name": "이화의원",
  "address": "경기도 안양시 동안구 경수대로 458 현대홈타운상가2층",
  "phone": "031-429-5338",
  "lat": 126.960699,
  "lng": 37.3643829
 },
 {
  "id": 205,
  "name": "전정형외과의원",
  "address": "경기도 광명시 범안로 1043",
  "phone": "02-895-5555",
  "lat": 126.878652,
  "lng": 37.4623115
 },
 {
  "id": 206,
  "name": "중동연세병원",
  "address": "경기도 부천시 원미구 길주로 319",
  "phone": "032-324-8675",
  "lat": 126.778102,
  "lng": 37.503277
 },
 {
  "id": 207,
  "name": "지샘병원",
  "address": "경기도 군포시 군포로 591",
  "phone": "031-389-3432",
  "lat": 126.947326,
  "lng": 37.3586651
 },
 {
  "id": 208,
  "name": "지성메디칼의원",
  "address": "경기도 안산시 상록구 샘골로 190",
  "phone": "031-418-7723",
  "lat": 126.863576,
  "lng": 37.3006792
 },
 {
  "id": 209,
  "name": "카톨릭대학교 성모병원",
  "address": "경기도 부천시 원미구 소사로 327",
  "phone": "1577-0675",
  "lat": 126.793017,
  "lng": 37.4874827
 },
 {
  "id": 210,
  "name": "푸른정형외과의원",
  "address": "경기도 부천시 부일로 362",
  "phone": "032-668-6600",
  "lat": 126.770189,
  "lng": 37.4874492
 },
 {
  "id": 211,
  "name": "한림대학교 성심병원",
  "address": "경기도 안양시 동안구 관평로 170번길 22",
  "phone": "031-380-1582",
  "lat": 126.961802,
  "lng": 37.391495
 },
 {
  "id": 212,
  "name": "한사랑의원",
  "address": "경기도 시흥시 중심상가4길 18",
  "phone": "031-499-7582",
  "lat": 126.737552,
  "lng": 37.3437777
 },
 {
  "id": 213,
  "name": "한성병원",
  "address": "경기도 안양시 동안구 경수대로 525",
  "phone": "031-452-0011",
  "lat": 126.957558,
  "lng": 37.3695356
 },
 {
  "id": 214,
  "name": "LG디스플레이 파주공장부속의원",
  "address": "파주시 월롱면 엘지로 245",
  "phone": "031-933-1970",
  "lat": 126.765905,
  "lng": 37.8100082
 },
 {
  "id": 215,
  "name": "HJ매그놀리아국제병원",
  "address": "가평군 설악면 미사리로267-177",
  "phone": "031-589-4658",
  "lat": 127.521309,
  "lng": 37.6906928
 },
 {
  "id": 216,
  "name": "가평 보건소",
  "address": "가평군 가평읍 가화로 155-18",
  "phone": "031-582-2488",
  "lat": 127.510598,
  "lng": 37.8334323
 },
 {
  "id": 217,
  "name": "가평 성모의원",
  "address": "가평군 가평읍 가화로 75",
  "phone": "031-582-1833",
  "lat": 127.514889,
  "lng": 37.8264764
 },
 {
  "id": 218,
  "name": "가평 성심의원",
  "address": "가평군 가평읍 가화로 47(대곡리)",
  "phone": "031-581-0341",
  "lat": 127.515452,
  "lng": 37.8240864
 },
 {
  "id": 219,
  "name": "경기도의료원 파주병원",
  "address": "파주시 중앙로 207",
  "phone": "031-940-9100",
  "lat": 126.779617,
  "lng": 37.7548603
 },
 {
  "id": 220,
  "name": "경기도의료원 포천병원",
  "address": "포천시 포천로 1648",
  "phone": "031-539-9114",
  "lat": 127.197384,
  "lng": 37.90313
 },
 {
  "id": 221,
  "name": "교문마취통증의학과의원",
  "address": "구리시 검배로 56",
  "phone": "031-567-6758",
  "lat": 127.144818,
  "lng": 37.5967977
 },
 {
  "id": 222,
  "name": "국군고양병원(현역군인만 해당)",
  "address": "고양시 덕양구 혜음로 215",
  "phone": "1688-9162",
  "lat": 126.896967,
  "lng": 37.718894
 },
 {
  "id": 223,
  "name": "국군포천병원(현역군인만 해당)",
  "address": "포천시 화현면 화동로 564",
  "phone": "1688-9164",
  "lat": 127.311975,
  "lng": 37.9168839
 },
 {
  "id": 224,
  "name": "국민건강보험공단 일산병원",
  "address": "고양시 일산동구 일산로 100",
  "phone": "02-1577-0013",
  "lat": 126.79278,
  "lng": 37.6455698
 },
 {
  "id": 225,
  "name": "남양주 나눔병원",
  "address": "남양주시 오남읍 진건오남로797번길 9",
  "phone": "031-570-1000",
  "lat": 127.201287,
  "lng": 37.6979223
 },
 {
  "id": 226,
  "name": "남양주 백병원",
  "address": "경기 남양주시 진접읍 혜밀예당1로 30-25",
  "phone": "031-572-3111",
  "lat": 127.187612,
  "lng": 37.711252
 },
 {
  "id": 227,
  "name": "남양주21세기병원",
  "address": "남양주시 진건읍 사릉로442번길 15",
  "phone": "031-573-1114",
  "lat": 127.177225,
  "lng": 37.6588495
 },
 {
  "id": 228,
  "name": "늘푸른신경외과의원",
  "address": "파주시 금빛로 24-27",
  "phone": "031-943-1141",
  "lat": 126.768256,
  "lng": 37.7519283
 },
 {
  "id": 229,
  "name": "더나은내과의원",
  "address": "고양시 덕양구 백양로51 네이버타운",
  "phone": "031-938-5392",
  "lat": 126.833164,
  "lng": 37.6302996
 },
 {
  "id": 230,
  "name": "동국대학교일산병원",
  "address": "고양시 일산동구 동국로 27",
  "phone": "1577-7000",
  "lat": 126.806467,
  "lng": 37.6763885
 },
 {
  "id": 231,
  "name": "동두천보건소",
  "address": "동두천시 중앙로 167",
  "phone": "031-860-3403",
  "lat": 127.051862,
  "lng": 37.8965884
 },
 {
  "id": 232,
  "name": "동부정형외과의원",
  "address": "남양주시 경춘로 452",
  "phone": "0507-1430-3406",
  "lat": 127.163584,
  "lng": 37.6088556
 },
 {
  "id": 233,
  "name": "메디인병원",
  "address": "파주시 시청로 6",
  "phone": "1566-1991",
  "lat": 126.774717,
  "lng": 37.7579683
 },
 {
  "id": 234,
  "name": "메디플러스내과의원",
  "address": "파주시 문산읍 문향로 93",
  "phone": "0507-1309-9120",
  "lat": 126.78661,
  "lng": 37.8599062
 },
 {
  "id": 235,
  "name": "명지병원",
  "address": "고양시 덕양구 화수로14번길 55",
  "phone": "031-810-5114",
  "lat": 126.830928,
  "lng": 37.6421083
 },
 {
  "id": 236,
  "name": "무척조은병원",
  "address": "파주시 문산읍 방촌로 1675-20",
  "phone": "031-954-1400",
  "lat": 126.780938,
  "lng": 37.863959
 },
 {
  "id": 237,
  "name": "백석중앙의원",
  "address": "양주시 백석읍 꿈나무로 305 동화1차 상가201",
  "phone": "031-826-2800",
  "lat": 126.984673,
  "lng": 37.7833578
 },
 {
  "id": 238,
  "name": "삼성엠알진단방사선과의원",
  "address": "남양주시 금곡로 72 센타프라자 5층",
  "phone": "031-559-4300",
  "lat": 127.211007,
  "lng": 37.6344228
 },
 {
  "id": 239,
  "name": "서울가정의학과의원",
  "address": "고양시 일산동구 정발산로 38 이스턴시티",
  "phone": "031-902-1277",
  "lat": 126.773133,
  "lng": 37.6566965
 },
 {
  "id": 240,
  "name": "서울의원",
  "address": "동두천시 중앙로 315",
  "phone": "031-865-2380",
  "lat": 127.054805,
  "lng": 37.9096507
 },
 {
  "id": 241,
  "name": "성심외과의원",
  "address": "포천시 영북면 영북로 180",
  "phone": "031-532-3500",
  "lat": 127.275022,
  "lng": 38.090439
 },
 {
  "id": 242,
  "name": "세란 연합의원",
  "address": "남양주시 퇴계원읍 퇴계원로 16",
  "phone": "031-571-2001",
  "lat": 127.14086,
  "lng": 37.6484648
 },
 {
  "id": 243,
  "name": "양주시청보건소",
  "address": "양주시 부흥로 1533",
  "phone": "031-8082-7770",
  "lat": 127.045259,
  "lng": 37.7851077
 },
 {
  "id": 244,
  "name": "양주예쓰병원",
  "address": "양주시 회정로 103",
  "phone": "031-825-5000",
  "lat": 127.064591,
  "lng": 37.8376876
 },
 {
  "id": 245,
  "name": "연천 보건의료원",
  "address": "경기 연천군 전곡읍 은대성로 95 연천군보건의료원",
  "phone": "031-839-4046",
  "lat": 127.061368,
  "lng": 38.0232638
 },
 {
  "id": 246,
  "name": "연천성모의원",
  "address": "연천군 연천읍 연천로 266",
  "phone": "031-834-9834",
  "lat": 127.075032,
  "lng": 38.1005995
 },
 {
  "id": 247,
  "name": "염정형외과의원",
  "address": "의정부시 시민로 130-1",
  "phone": "031-877-0610",
  "lat": 127.049338,
  "lng": 37.7378958
 },
 {
  "id": 248,
  "name": "우리안과의원",
  "address": "고양시 덕양구 호국로790번길 17 영프라자",
  "phone": "031-965-1331",
  "lat": 126.837287,
  "lng": 37.6562626
 },
 {
  "id": 249,
  "name": "원진녹색병원",
  "address": "구리시 동구릉로 65 성림스포츠센터",
  "phone": "031-550-1118",
  "lat": 127.133488,
  "lng": 37.605983
 },
 {
  "id": 250,
  "name": "윤서 병원",
  "address": "구리시 건원대로 47",
  "phone": "031-553-6650",
  "lat": 127.139466,
  "lng": 37.6051923
 },
 {
  "id": 251,
  "name": "의료법인성베드로병원",
  "address": "의정부시 평화로 622",
  "phone": "1544-1131",
  "lat": 127.045838,
  "lng": 37.7475014
 },
 {
  "id": 252,
  "name": "의료법인자인의료재단자인메디병원",
  "address": "고양시 덕양구 중앙로 555",
  "phone": "031-930-3114",
  "lat": 126.83531,
  "lng": 37.6231849
 },
 {
  "id": 253,
  "name": "의정부신체검사의원",
  "address": "의정부시 금오로 109번길 55(시험장內)",
  "phone": "031-847-1442",
  "lat": 127.076509,
  "lng": 37.7597209
 },
 {
  "id": 254,
  "name": "일산복음병원",
  "address": "고양시 일산동구 고양대로 760",
  "phone": "031-977-5000",
  "lat": 126.780197,
  "lng": 37.6820003
 },
 {
  "id": 255,
  "name": "제일의원",
  "address": "고양시 일산서구 원일로74번길 20",
  "phone": "031-975-2677",
  "lat": 126.769927,
  "lng": 37.6854583
 },
 {
  "id": 256,
  "name": "중앙의원",
  "address": "고양시 덕양구 통일로 795 류진빌딩",
  "phone": "031-964-6111",
  "lat": 126.86217,
  "lng": 37.6884503
 },
 {
  "id": 257,
  "name": "파주성모요양병원",
  "address": "파주시 탄현면 평화로574번길 17",
  "phone": "031-8071-1661",
  "lat": 126.720969,
  "lng": 37.7739167
 },
 {
  "id": 258,
  "name": "프렌닥터중앙의원",
  "address": "남양주시 경춘로 988 프렌닥터중앙의원",
  "phone": "031-592-2361",
  "lat": 127.211369,
  "lng": 37.6340168
 },
 {
  "id": 259,
  "name": "하태성 정형외과의원",
  "address": "고양시 일산서구 중앙로 1371 강선마을",
  "phone": "031-921-4567",
  "lat": 126.766041,
  "lng": 37.6666834
 },
 {
  "id": 260,
  "name": "허유재병원",
  "address": "고양시 일산동구 중앙로 1317",
  "phone": "0505-1442-1100",
  "lat": 126.76994,
  "lng": 37.662898
 },
 {
  "id": 261,
  "name": "현대병원",
  "address": "남양주시 진접읍 봉현로 21",
  "phone": "031-574-9118",
  "lat": 127.179774,
  "lng": 37.7154446
 },
 {
  "id": 262,
  "name": "현대정형외과의원",
  "address": "남양주시 와부읍 덕소로97번길 9 일신프라자",
  "phone": "031-576-6651",
  "lat": 127.213272,
  "lng": 37.5861261
 },
 {
  "id": 263,
  "name": "강화병원",
  "address": "인천시 강화군 강화읍 강화대로312번길11",
  "phone": "032-930-8100",
  "lat": 126.495463,
  "lng": 37.7433068
 },
 {
  "id": 264,
  "name": "권의원",
  "address": "인천시 동구 샛골로142(송림동)",
  "phone": "032-763-1110",
  "lat": 126.644616,
  "lng": 37.4749462
 },
 {
  "id": 265,
  "name": "나사렛국제병원",
  "address": "인천연수구 먼우금로98(동춘동)",
  "phone": "032-899-9999",
  "lat": 126.670404,
  "lng": 37.4081396
 },
 {
  "id": 266,
  "name": "나은병원",
  "address": "인천시 서구 원적로23(가좌동)",
  "phone": "032-584-114",
  "lat": 126.679736,
  "lng": 37.4892288
 },
 {
  "id": 267,
  "name": "남부의원",
  "address": "인천시 남동구 아암대로1247(고잔동)",
  "phone": "032-810-2500",
  "lat": 126.70884,
  "lng": 37.3849137
 },
 {
  "id": 268,
  "name": "백령인천의료원",
  "address": "인천 옹진군 백령면254번길52-12",
  "phone": "032-836-1731",
  "lat": 124.720797,
  "lng": 37.9685701
 },
 {
  "id": 269,
  "name": "부평내과의원",
  "address": "인천 부평구 부평대로9(부평동)",
  "phone": "032-522-7563",
  "lat": 126.722716,
  "lng": 37.4921131
 },
 {
  "id": 270,
  "name": "부평성심의원",
  "address": "인천시 부평구 마장로449(청천동)",
  "phone": "032-504-9966",
  "lat": 126.703773,
  "lng": 37.5183039
 },
 {
  "id": 271,
  "name": "부평세림병원",
  "address": "인천시 부평구 부평대로175(청천동)",
  "phone": "032-509-5400",
  "lat": 126.719664,
  "lng": 37.5067741
 },
 {
  "id": 272,
  "name": "부평중앙병원",
  "address": "인천시 부평구 부평대로93(부평동)",
  "phone": "032-513-5500",
  "lat": 126.721772,
  "lng": 37.4996882
 },
 {
  "id": 273,
  "name": "서인천현대정형외과",
  "address": "인천광역시 서구 탁옥로 45",
  "phone": "032-561-7575",
  "lat": 126.674613,
  "lng": 37.5440763
 },
 {
  "id": 274,
  "name": "성모외과의원",
  "address": "인천시 남구 석정로387(주안동)",
  "phone": "032-866-9076",
  "lat": 126.678644,
  "lng": 37.4672684
 },
 {
  "id": 275,
  "name": "성베드로한방병원",
  "address": "인천시 계양구 장제로785(계산동)",
  "phone": "032-544-2200",
  "lat": 126.733883,
  "lng": 37.5378824
 },
 {
  "id": 276,
  "name": "온누리병원",
  "address": "인천시 서구 원정로199(왕길동)",
  "phone": "032-567-6200",
  "lat": 126.654346,
  "lng": 37.6027807
 },
 {
  "id": 277,
  "name": "인성의원",
  "address": "인천시 강화군 강화읍 중앙로23",
  "phone": "032-932-4455",
  "lat": 126.490413,
  "lng": 37.7418705
 },
 {
  "id": 278,
  "name": "인천광역시의료원",
  "address": "인천시 동구 방축로217(송림동)",
  "phone": "032-580-6000",
  "lat": 126.668589,
  "lng": 37.4786022
 },
 {
  "id": 279,
  "name": "인천기독병원",
  "address": "인천시 중구 답동로30번길10(율목동)",
  "phone": "032-762-7831",
  "lat": 126.631634,
  "lng": 37.4710951
 },
 {
  "id": 280,
  "name": "인천백병원",
  "address": "인천시 동구 샛골로214(송림동)",
  "phone": "032-777-7050",
  "lat": 126.645601,
  "lng": 37.4818328
 },
 {
  "id": 281,
  "name": "인천산재병원 근로복지공단",
  "address": "인천광역시 부평구 무네미로 478 인천노동복지합동청사",
  "phone": "032-500-0272",
  "lat": 126.752218,
  "lng": 37.4782315
 },
 {
  "id": 282,
  "name": "인천적십자병원",
  "address": "인천시 연수구 원인재로263(연수동)",
  "phone": "032-899-4000",
  "lat": 126.689562,
  "lng": 37.4184452
 },
 {
  "id": 283,
  "name": "정요양병원",
  "address": "인천시 부평구 부흥로412(부개동)",
  "phone": "032-528-3114",
  "lat": 126.737589,
  "lng": 37.497391
 },
 {
  "id": 284,
  "name": "중앙성모의원",
  "address": "인천시 부평구 후정동로12(삼산동벽산블르밍 상가2층",
  "phone": "032-511-4792",
  "lat": 126.738454,
  "lng": 37.5184763
 },
 {
  "id": 285,
  "name": "푸른메디칼의원",
  "address": "인천시 남구 한나루로501(용현동)",
  "phone": "032-886-2828",
  "lat": 126.667092,
  "lng": 37.4517841
 },
 {
  "id": 286,
  "name": "한림병원",
  "address": "인천시 계양구 장제로722(작전동)",
  "phone": "032-550-9090",
  "lat": 126.734175,
  "lng": 37.5321348
 },
 {
  "id": 287,
  "name": "한마음병원",
  "address": "인천시 게양대로51(작전동)",
  "phone": "032-553-0070",
  "lat": 126.722038,
  "lng": 37.5283405
 },
 {
  "id": 288,
  "name": "현대유비스",
  "address": "인천시 남구 독배로503(숭의동)",
  "phone": "032-888-7575",
  "lat": 126.642996,
  "lng": 37.4615885
 },
 {
  "id": 289,
  "name": "21세기 정형외과의원",
  "address": "수성구 화랑로 122(만촌동)",
  "phone": "053-752-2100",
  "lat": 128.640122,
  "lng": 35.873315
 },
 {
  "id": 290,
  "name": "가야기독병원",
  "address": "달서구 월배로83길 14(송현동)",
  "phone": "053-620-9500",
  "lat": 128.551056,
  "lng": 35.8321704
 },
 {
  "id": 291,
  "name": "강 병원",
  "address": "북구 노원로 70(노원로3가)",
  "phone": "053-350-5000",
  "lat": 128.570005,
  "lng": 35.8935716
 },
 {
  "id": 292,
  "name": "강동의원",
  "address": "동구 율하동로27길 1(신기동)",
  "phone": "053-964-3666",
  "lat": 128.702333,
  "lng": 35.8717291
 },
 {
  "id": 293,
  "name": "강미정연합내과의원",
  "address": "수성구 동대구로 311 애플타워 9층",
  "phone": "053-753-0024",
  "lat": 128.625264,
  "lng": 35.8581254
 },
 {
  "id": 294,
  "name": "강촌연합의원",
  "address": "동구 화랑로80길 11(방촌동)",
  "phone": "053-984-5243",
  "lat": 128.668488,
  "lng": 35.8754567
 },
 {
  "id": 295,
  "name": "경산신경외과",
  "address": "수성구 달구벌대로 3231(신매동)",
  "phone": "053-794-0607",
  "lat": 128.709919,
  "lng": 35.8393432
 },
 {
  "id": 296,
  "name": "경일신경내과의원",
  "address": "달서구 달구벌대로 1814(두류동)",
  "phone": "053-652-2525",
  "lat": 128.563432,
  "lng": 35.85945
 },
 {
  "id": 297,
  "name": "곽병원",
  "address": "중구 국채보상로 531(수동)",
  "phone": "053-252-2401",
  "lat": 128.588729,
  "lng": 35.870644
 },
 {
  "id": 298,
  "name": "곽재영외과",
  "address": "서구 국채보상로 242(평리동)",
  "phone": "053-567-3496",
  "lat": 128.557541,
  "lng": 35.8706646
 },
 {
  "id": 299,
  "name": "곽종섭안과의원",
  "address": "북구 동북로 288(복현동)",
  "phone": "053-954-6500",
  "lat": 128.621249,
  "lng": 35.8925488
 },
 {
  "id": 300,
  "name": "관문연합의원",
  "address": "대구광역시 남구 대명서로 113",
  "phone": "053-626-1858",
  "lat": 128.558357,
  "lng": 35.8331304
 },
 {
  "id": 301,
  "name": "구병원",
  "address": "대구광역시 달서구 감삼북길 141",
  "phone": "053-560-9114",
  "lat": 128.541388,
  "lng": 35.8506601
 },
 {
  "id": 302,
  "name": "굿모닝연합의원",
  "address": "동구 율하동로24길 39(신기동)",
  "phone": "053-964-3511",
  "lat": 128.706739,
  "lng": 35.8696481
 },
 {
  "id": 303,
  "name": "권오종내과의원",
  "address": "수성구 들안로 262(수성로3가)",
  "phone": "053-762-0075",
  "lat": 128.617318,
  "lng": 35.8533484
 },
 {
  "id": 304,
  "name": "길비뇨기과의원",
  "address": "동구 동촌로 226(방촌동)",
  "phone": "053-984-9611",
  "lat": 128.664674,
  "lng": 35.8815472
 },
 {
  "id": 305,
  "name": "김기윤내과의원",
  "address": "달서구 성지로 70(용산동)",
  "phone": "053-591-7715",
  "lat": 128.521324,
  "lng": 35.8555025
 },
 {
  "id": 306,
  "name": "김동환내과의원",
  "address": "달서구 도원로 29(도원동)",
  "phone": "053-641-5513",
  "lat": 128.536056,
  "lng": 35.8071757
 },
 {
  "id": 307,
  "name": "김민상외과의원",
  "address": "북구 대구체육관로 51-2(산격동)",
  "phone": "053-941-3893",
  "lat": 128.604961,
  "lng": 35.8926954
 },
 {
  "id": 308,
  "name": "김하식외과",
  "address": "북구 칠곡중앙대로 219(태전동)",
  "phone": "053-312-5690",
  "lat": 128.548152,
  "lng": 35.9156356
 },
 {
  "id": 309,
  "name": "나사렛종합병원",
  "address": "달서구 월배로 97(진천동)",
  "phone": "053-643-1400",
  "lat": 128.525222,
  "lng": 35.8145228
 },
 {
  "id": 310,
  "name": "낙타연합정형외과의원",
  "address": "동구 국채보상로 867(신천동)",
  "phone": "053-756-3000",
  "lat": 128.625684,
  "lng": 35.8673383
 },
 {
  "id": 311,
  "name": "남구보건소",
  "address": "남구 영선길 34(대명동)",
  "phone": "053-664-3684",
  "lat": 128.591528,
  "lng": 35.8539179
 },
 {
  "id": 312,
  "name": "녹십자연합의원",
  "address": "북구 칠곡중앙대로 440(읍내동)",
  "phone": "053-314-1001",
  "lat": 128.549293,
  "lng": 35.9349323
 },
 {
  "id": 313,
  "name": "다인연합의원",
  "address": "동구 송라로11길 39(신천동상가) 휴먼시아6단지",
  "phone": "053-252-0588",
  "lat": 128.617024,
  "lng": 35.8710326
 },
 {
  "id": 314,
  "name": "달서구보건소",
  "address": "달서구 학산로 45(월성동,달서구보건소)",
  "phone": "053-667-3125",
  "lat": 128.532618,
  "lng": 35.8297394
 },
 {
  "id": 315,
  "name": "달성군보건소",
  "address": "대구 달성군 현풍읍 현풍중앙로 27 달성군보건소",
  "phone": "053-668-3109",
  "lat": 128.446136,
  "lng": 35.6921108
 },
 {
  "id": 316,
  "name": "달성외과",
  "address": "달서구 파도고개로 3(성당동)",
  "phone": "053-625-5806",
  "lat": 128.572966,
  "lng": 35.8511974
 },
 {
  "id": 317,
  "name": "대구가톨릭의원",
  "address": "달서구 성서공단북로308(성서관리공단4층)",
  "phone": "053-583-4280",
  "lat": 128.506646,
  "lng": 35.8438101
 },
 {
  "id": 318,
  "name": "대구교도소부속의원",
  "address": "달성군 화원읍 비슬로 2624",
  "phone": "053-632-4501",
  "lat": 128.504227,
  "lng": 35.803
 },
 {
  "id": 319,
  "name": "대구구치소 부속의원",
  "address": "수성구 달구벌대로541길 36(만촌동)",
  "phone": "053-740-5242",
  "lat": 128.658837,
  "lng": 35.8559457
 },
 {
  "id": 320,
  "name": "대구기독병원",
  "address": "달서구 달구벌대로 1750(두류동)",
  "phone": "053-606-1616",
  "lat": 128.556862,
  "lng": 35.8569219
 },
 {
  "id": 321,
  "name": "대구병원",
  "address": "북구 칠곡중앙대로 194(태전동)",
  "phone": "053-311-2001",
  "lat": 128.548804,
  "lng": 35.9132753
 },
 {
  "id": 322,
  "name": "대구보훈병원",
  "address": "달서구 월곡로 60(도원동)",
  "phone": "053-630-7000",
  "lat": 128.551749,
  "lng": 35.8029011
 },
 {
  "id": 323,
  "name": "대구삼선병원",
  "address": "북구 칠곡중앙대로 448(읍내동)",
  "phone": "053-326-7575",
  "lat": 128.549229,
  "lng": 35.935663
 },
 {
  "id": 324,
  "name": "대구시티병원",
  "address": "북구 동북로 270(복현동)",
  "phone": "053-959-7116",
  "lat": 128.619574,
  "lng": 35.8935176
 },
 {
  "id": 325,
  "name": "대구카톨릭대학병원",
  "address": "남구 두류공원로17길 33(대명동)",
  "phone": "053-626-5301",
  "lat": 128.567216,
  "lng": 35.8436127
 },
 {
  "id": 326,
  "name": "대구파티마병원",
  "address": "동구 아양로 99(신암동)",
  "phone": "053-940-7114",
  "lat": 128.623833,
  "lng": 35.8840704
 },
 {
  "id": 327,
  "name": "대명의료재단 서대구 병원",
  "address": "서구 국채보상로 200(평리동)",
  "phone": "053-560-2203",
  "lat": 128.552982,
  "lng": 35.8696783
 },
 {
  "id": 328,
  "name": "대봉정형외과의원",
  "address": "남구 명덕로 306(이천동)",
  "phone": "053-471-9098",
  "lat": 128.60336,
  "lng": 35.8549772
 },
 {
  "id": 329,
  "name": "도외과의원",
  "address": "달서구 달구벌대로 1348(이곡동)",
  "phone": "053-581-7001",
  "lat": 128.514807,
  "lng": 35.8504031
 },
 {
  "id": 330,
  "name": "동구보건소",
  "address": "동구 동촌로 79(검사동, 동구보건소)",
  "phone": "053-662-3202",
  "lat": 128.651224,
  "lng": 35.8881217
 },
 {
  "id": 331,
  "name": "동대구연합의원",
  "address": "동구 동북로 407(신암동)",
  "phone": "053-957-0605",
  "lat": 128.63232,
  "lng": 35.8864695
 },
 {
  "id": 332,
  "name": "동부허병원",
  "address": "동구 화랑로 81(효목동)",
  "phone": "053-749-0025",
  "lat": 128.635746,
  "lng": 35.8726717
 },
 {
  "id": 333,
  "name": "동산내과의원",
  "address": "달성군 화원읍 명곡리 14",
  "phone": "053-635-2808",
  "lat": 128.505574,
  "lng": 35.7952242
 },
 {
  "id": 334,
  "name": "동산연합정형외과",
  "address": "달성군 다사읍 달구벌대로 844",
  "phone": "053-593-3119",
  "lat": 128.462353,
  "lng": 35.8601091
 },
 {
  "id": 335,
  "name": "동산연합정형외과의원",
  "address": "북구 원대로 76(고성동3가)",
  "phone": "053-356-0070",
  "lat": 128.581991,
  "lng": 35.8842499
 },
 {
  "id": 336,
  "name": "동산종합의원",
  "address": "달서구 월성로 42(월성동, 상가2층)",
  "phone": "053-635-7947",
  "lat": 128.530773,
  "lng": 35.8316282
 },
 {
  "id": 337,
  "name": "동서자애의원",
  "address": "달서구 월배로 214(상인동)",
  "phone": "053-631-3771",
  "lat": 128.536947,
  "lng": 35.8183837
 },
 {
  "id": 338,
  "name": "동양정신과의원",
  "address": "수성 달구벌대로 2472(범어동)",
  "phone": "053-754-0025",
  "lat": 128.632964,
  "lng": 35.8584807
 },
 {
  "id": 339,
  "name": "동호정형외과의원",
  "address": "동구 안심로 366(신서동)",
  "phone": "053-965-1119",
  "lat": 128.724369,
  "lng": 35.8678015
 },
 {
  "id": 340,
  "name": "디케어센터",
  "address": "서구 와룡로 307 2층",
  "phone": "053-288-3000",
  "lat": 128.536828,
  "lng": 35.8598651
 },
 {
  "id": 341,
  "name": "류외과연합의원",
  "address": "북구 검단로 112(검단동)",
  "phone": "053-382-7585",
  "lat": 128.619984,
  "lng": 35.9065875
 },
 {
  "id": 342,
  "name": "마디편한정형외과의원",
  "address": "수성구 달구벌대로 2512(범어동)",
  "phone": "053-743-0088",
  "lat": 128.637392,
  "lng": 35.8584925
 },
 {
  "id": 343,
  "name": "맑은안과의원",
  "address": "동구 방촌로 217(방촌동)",
  "phone": "053-984-1002",
  "lat": 128.664224,
  "lng": 35.8822743
 },
 {
  "id": 344,
  "name": "명문정형외과의원",
  "address": "수성구 달구벌대로 2578(만촌동)",
  "phone": "053-741-2520",
  "lat": 128.64471,
  "lng": 35.8585008
 },
 {
  "id": 345,
  "name": "명성병원",
  "address": "수성 희망로 219(황금동)",
  "phone": "053-767-5119",
  "lat": 128.622807,
  "lng": 35.8467322
 },
 {
  "id": 346,
  "name": "명신의원",
  "address": "달서구 당산로 91-1(감삼동)",
  "phone": "053-557-9191",
  "lat": 128.544215,
  "lng": 35.8457576
 },
 {
  "id": 347,
  "name": "문성두외과의원",
  "address": "달성군 화원읍 명곡로 14",
  "phone": "053-639-1717",
  "lat": 128.496122,
  "lng": 35.7984601
 },
 {
  "id": 348,
  "name": "미래종합의원",
  "address": "달서구 상인로 7(상인동)",
  "phone": "053-637-8340",
  "lat": 128.551422,
  "lng": 35.80888
 },
 {
  "id": 349,
  "name": "미즈맘병원",
  "address": "달서구 월배로 62(진천동)",
  "phone": "053-609-5000",
  "lat": 128.521327,
  "lng": 35.8133105
 },
 {
  "id": 350,
  "name": "바로본병원",
  "address": "동구 국채보상로 769",
  "phone": "053-721-8575",
  "lat": 128.615178,
  "lng": 35.8684352
 },
 {
  "id": 351,
  "name": "박정국내과의원",
  "address": "달서구 월곡로 184(상인동)",
  "phone": "053-632-5577",
  "lat": 128.544836,
  "lng": 35.8126684
 },
 {
  "id": 352,
  "name": "반야월연합의원",
  "address": "동구 반야월로 223(동호동)",
  "phone": "053-964-5119",
  "lat": 128.713062,
  "lng": 35.8722705
 },
 {
  "id": 353,
  "name": "반야월정형외과",
  "address": "동구 반야월로 96(율하동)",
  "phone": "053-962-7277",
  "lat": 128.698933,
  "lng": 35.873237
 },
 {
  "id": 354,
  "name": "백상헌외과의원",
  "address": "수성구 지범로 57-5(지산동)",
  "phone": "053-783-1816",
  "lat": 128.628941,
  "lng": 35.8262926
 },
 {
  "id": 355,
  "name": "북대구의원",
  "address": "북구 칠곡중앙대로 205(태전동)",
  "phone": "053-311-1319",
  "lat": 128.548185,
  "lng": 35.9144637
 },
 {
  "id": 356,
  "name": "불로연합의원",
  "address": "동구 팔공로 148(불로동)",
  "phone": "053-984-2525",
  "lat": 128.641349,
  "lng": 35.9118845
 },
 {
  "id": 357,
  "name": "사랑샘의원",
  "address": "달서구 와룡로32길 13(감삼동)",
  "phone": "053-557-2846",
  "lat": 128.538105,
  "lng": 35.8462955
 },
 {
  "id": 358,
  "name": "새소망내과의원",
  "address": "북구 공항로 10(복현동)",
  "phone": "053-943-0675",
  "lat": 128.616325,
  "lng": 35.8976705
 },
 {
  "id": 359,
  "name": "서울의원",
  "address": "서구 문화로 254(평리동)",
  "phone": "053-552-5659",
  "lat": 128.560316,
  "lng": 35.8755759
 },
 {
  "id": 360,
  "name": "서정형외과의원",
  "address": "달서구 월배로 316(송현동)",
  "phone": "053-624-7585",
  "lat": 128.545901,
  "lng": 35.8236668
 },
 {
  "id": 361,
  "name": "선우신경외과의원",
  "address": "달서구 월곡로 180(상인동)",
  "phone": "053-638-7722",
  "lat": 128.545126,
  "lng": 35.8122412
 },
 {
  "id": 362,
  "name": "성모성심수도회 성삼병원",
  "address": "수성구 달구벌대로 3190(신매동)",
  "phone": "053-790-0568",
  "lat": 128.705722,
  "lng": 35.8402409
 },
 {
  "id": 363,
  "name": "성서효요양병원",
  "address": "달서구 달구벌대로 1152(신당동)",
  "phone": "053-592-5544",
  "lat": 128.493224,
  "lng": 35.8510696
 },
 {
  "id": 364,
  "name": "세강병원",
  "address": "달서구 구마로 220(송현동)",
  "phone": "053-623-2121",
  "lat": 128.551719,
  "lng": 35.8366766
 },
 {
  "id": 365,
  "name": "시지미래내과의원",
  "address": "수성구 달구벌대로 3206(신매동)",
  "phone": "053-794-3600",
  "lat": 128.707361,
  "lng": 35.8397941
 },
 {
  "id": 366,
  "name": "시지정형외과",
  "address": "수성 달구벌대로 3140(시지동)",
  "phone": "053-794-0777",
  "lat": 128.700141,
  "lng": 35.8416266
 },
 {
  "id": 367,
  "name": "시지합동내과의원",
  "address": "수성구 달구벌대로 3169(매호동)",
  "phone": "053-792-5507",
  "lat": 128.703812,
  "lng": 35.8415115
 },
 {
  "id": 368,
  "name": "신기한속내과연합의원",
  "address": "동구 안심로 22길 60(율하동, 동흥메디칼)",
  "phone": "053-963-8275",
  "lat": 128.698363,
  "lng": 35.8631255
 },
 {
  "id": 369,
  "name": "신라병원",
  "address": "달서구 월배로 10(진천동)",
  "phone": "053-642-2475",
  "lat": 128.516936,
  "lng": 35.811059
 },
 {
  "id": 370,
  "name": "신세계가정의학과의원",
  "address": "동구 동촌로 45(입석동)",
  "phone": "053-983-0006",
  "lat": 128.647851,
  "lng": 35.8899522
 },
 {
  "id": 371,
  "name": "신현국정형외과",
  "address": "남구 봉덕로 15(봉덕동)",
  "phone": "053-475-0361",
  "lat": 128.59239,
  "lng": 35.8455529
 },
 {
  "id": 372,
  "name": "아세아정형외과",
  "address": "달서구 달구벌대로 1260(이곡동)",
  "phone": "053-582-5400",
  "lat": 128.505211,
  "lng": 35.851605
 },
 {
  "id": 373,
  "name": "안심카톨릭연합의원",
  "address": "동구 경안로 728(동호동)",
  "phone": "053-961-8275",
  "lat": 128.713937,
  "lng": 35.8671397
 },
 {
  "id": 374,
  "name": "안태수외과",
  "address": "동구 효신로 24(효목동)",
  "phone": "053-754-6226",
  "lat": 128.634703,
  "lng": 35.8741818
 },
 {
  "id": 375,
  "name": "양외과의원",
  "address": "달성군 현풍면 비슬로122길 27",
  "phone": "053-614-2542",
  "lat": 128.445157,
  "lng": 35.6935645
 },
 {
  "id": 376,
  "name": "여성메디파크병원",
  "address": "수성구 동대구로 271(범어동)",
  "phone": "053-740-7792",
  "lat": 128.624784,
  "lng": 35.8546806
 },
 {
  "id": 377,
  "name": "연세연합의원",
  "address": "북구 연암로 170(산격동)",
  "phone": "053-941-1151",
  "lat": 128.596427,
  "lng": 35.8995495
 },
 {
  "id": 378,
  "name": "연합정형외과의원",
  "address": "북구 동북로 277(복현동)",
  "phone": "053-959-0331",
  "lat": 128.620692,
  "lng": 35.8935025
 },
 {
  "id": 379,
  "name": "예가정의학과",
  "address": "동구 아양로50길 116(효목동)",
  "phone": "053-954-3376",
  "lat": 128.64239,
  "lng": 35.8823764
 },
 {
  "id": 380,
  "name": "오연합정형외과의원",
  "address": "남구 대명로 228(대명동)",
  "phone": "053-621-9090",
  "lat": 128.581969,
  "lng": 35.8407792
 },
 {
  "id": 381,
  "name": "옥포의원",
  "address": "달성군 옥포면 비슬로 2200-1",
  "phone": "053-614-0273",
  "lat": 128.462527,
  "lng": 35.7881402
 },
 {
  "id": 382,
  "name": "와룡내과의원",
  "address": "달서구 성서서로 341(신당동)",
  "phone": "053-585-7582",
  "lat": 128.499598,
  "lng": 35.8557033
 },
 {
  "id": 383,
  "name": "우리들의원",
  "address": "남구 대명로 150(대명동)",
  "phone": "053-623-4080",
  "lat": 128.574097,
  "lng": 35.838945
 },
 {
  "id": 384,
  "name": "월성제일의원",
  "address": "대구광역시 달서구 구마로12길 93",
  "phone": "053-636-7484",
  "lat": 128.534108,
  "lng": 35.8330006
 },
 {
  "id": 385,
  "name": "웰라이프병원",
  "address": "북구 공항로 15(복현동)",
  "phone": "053-383-1080",
  "lat": 128.61666,
  "lng": 35.8983779
 },
 {
  "id": 386,
  "name": "유림연합의원",
  "address": "달서구 당산로 99-1(감삼동)",
  "phone": "053-525-8006",
  "lat": 128.544517,
  "lng": 35.8464927
 },
 {
  "id": 387,
  "name": "유스외과의원",
  "address": "수성구 달구벌대로 3117(시지동)",
  "phone": "053-792-1919",
  "lat": 128.698129,
  "lng": 35.8427724
 },
 {
  "id": 388,
  "name": "의료법인 한성재단 동아메디병원",
  "address": "수성구 지산로 77(지산동)",
  "phone": "053-780-3000",
  "lat": 128.633609,
  "lng": 35.8278153
 },
 {
  "id": 389,
  "name": "이광연합의원",
  "address": "동구 아양로 37(신암동)",
  "phone": "053-941-3382",
  "lat": 128.618269,
  "lng": 35.8821809
 },
 {
  "id": 390,
  "name": "이용제내과의원",
  "address": "동구 화랑로 111(효목동)",
  "phone": "053-756-2882",
  "lat": 128.638727,
  "lng": 35.873316
 },
 {
  "id": 391,
  "name": "인구보건복지협회가족보건",
  "address": "서구 국채보상로46길 16(평리동)",
  "phone": "053-566-1903",
  "lat": 128.555815,
  "lng": 35.8690198
 },
 {
  "id": 392,
  "name": "장석락내과의원",
  "address": "달서구 계대동문로 47(신당동)",
  "phone": "053-588-8879",
  "lat": 128.497551,
  "lng": 35.8557288
 },
 {
  "id": 393,
  "name": "정무달외과의원",
  "address": "수성구 수성로 244(중동)",
  "phone": "053-762-3003",
  "lat": 128.613155,
  "lng": 35.8472496
 },
 {
  "id": 394,
  "name": "정태훈내과",
  "address": "북구 중앙대로 522(칠성동2가)",
  "phone": "053-425-5678",
  "lat": 128.595971,
  "lng": 35.8795774
 },
 {
  "id": 395,
  "name": "제일신경외과",
  "address": "동구 아양로 167(신암동)",
  "phone": "053-959-0551",
  "lat": 128.631278,
  "lng": 35.8858439
 },
 {
  "id": 396,
  "name": "제일안과",
  "address": "동구 아양로 1(신암동)",
  "phone": "053-959-1751",
  "lat": 128.614752,
  "lng": 35.8818498
 },
 {
  "id": 397,
  "name": "조정형외과의원",
  "address": "수성구 달구벌대로 3177(매호동)",
  "phone": "053-792-0266",
  "lat": 128.704561,
  "lng": 35.8413387
 },
 {
  "id": 398,
  "name": "죽전연합정형외과",
  "address": "달서구 와룡로 206(죽전동)",
  "phone": "053-557-8275",
  "lat": 128.53761,
  "lng": 35.8510599
 },
 {
  "id": 399,
  "name": "중구보건소",
  "address": "중구 태평로 45(태평로3가, 중구보건소)",
  "phone": "053-661-3817",
  "lat": 128.583359,
  "lng": 35.8778969
 },
 {
  "id": 400,
  "name": "지방공사대구의료원",
  "address": "서구 평리로 157(중리동)",
  "phone": "053-560-7440",
  "lat": 128.540076,
  "lng": 35.8595532
 },
 {
  "id": 401,
  "name": "지성외과의원",
  "address": "서구 국채보상로 300(평리동)",
  "phone": "053-551-5119",
  "lat": 128.563727,
  "lng": 35.8716476
 },
 {
  "id": 402,
  "name": "진병원",
  "address": "동구 경안로 719(서호동)",
  "phone": "053-961-9966",
  "lat": 128.713244,
  "lng": 35.8663476
 },
 {
  "id": 403,
  "name": "참빛연합의원",
  "address": "대구광역시 북구 침산남로44길 45-6",
  "phone": "053-254-2363",
  "lat": 128.599108,
  "lng": 35.8841225
 },
 {
  "id": 404,
  "name": "참인내과의원",
  "address": "수성구 시지로3길 66-10",
  "phone": "053-794-3838",
  "lat": 128.695823,
  "lng": 35.8415614
 },
 {
  "id": 405,
  "name": "참좋은연합의원",
  "address": "서구 평리로 243(중리동, 삼익빌딩 2층)",
  "phone": "053-524-0075",
  "lat": 128.549914,
  "lng": 35.8628061
 },
 {
  "id": 406,
  "name": "채흉부외과",
  "address": "서구 팔달로 158(비산동)",
  "phone": "053-357-8880",
  "lat": 128.567241,
  "lng": 35.8887416
 },
 {
  "id": 407,
  "name": "청구정형외과",
  "address": "동구 송라로 5(신천동)",
  "phone": "053-421-7000",
  "lat": 128.618698,
  "lng": 35.8684148
 },
 {
  "id": 408,
  "name": "청운정형외과의원",
  "address": "달서구 달구벌대로 1716(두류동)",
  "phone": "053-652-2455",
  "lat": 128.553301,
  "lng": 35.8559497
 },
 {
  "id": 409,
  "name": "춘곡의료재단 수성메트로병원",
  "address": "수성구 무열로 5(만촌동)",
  "phone": "053-743-7777",
  "lat": 128.645849,
  "lng": 35.8595395
 },
 {
  "id": 410,
  "name": "칠곡대신의원",
  "address": "북구 팔거천동로 38(구암동)",
  "phone": "053-321-5957",
  "lat": 128.552771,
  "lng": 35.9281018
 },
 {
  "id": 411,
  "name": "칠곡카톨릭병원",
  "address": "북구 칠곡중앙대로 440(읍내동)",
  "phone": "053-320-2160",
  "lat": 128.549293,
  "lng": 35.9349323
 },
 {
  "id": 412,
  "name": "킴스건강 내과 외과의원",
  "address": "북구 침산남로 23(노원동1가)",
  "phone": "053-353-1313",
  "lat": 128.578736,
  "lng": 35.8887533
 },
 {
  "id": 413,
  "name": "튼튼정형외과",
  "address": "서구 서대구로 74(평리동)",
  "phone": "053-522-8275",
  "lat": 128.556381,
  "lng": 35.8645609
 },
 {
  "id": 414,
  "name": "파티마연합내과의원",
  "address": "동구 아양로 51-1(신암동)",
  "phone": "053-952-5667",
  "lat": 128.619749,
  "lng": 35.8825124
 },
 {
  "id": 415,
  "name": "파티마정형외과의원",
  "address": "달서 이곡공원로 42(이곡동)",
  "phone": "053-582-5911",
  "lat": 128.512072,
  "lng": 35.8550424
 },
 {
  "id": 416,
  "name": "평화신경외과",
  "address": "중구 달구벌대로 447길 6(삼덕동3가)",
  "phone": "053-256-0075",
  "lat": 128.607531,
  "lng": 35.8625631
 },
 {
  "id": 417,
  "name": "푸른미래내과의원",
  "address": "중구 명륜로23길 111(남산동)",
  "phone": "053-422-8575",
  "lat": 128.59447,
  "lng": 35.8648638
 },
 {
  "id": 418,
  "name": "프라자안과의원",
  "address": "수성 명덕로 368(수성동1가,우방한가람타운)",
  "phone": "053-766-7979",
  "lat": 128.610223,
  "lng": 35.8544349
 },
 {
  "id": 419,
  "name": "하나종합내과의원",
  "address": "달서구 명덕로 23(두류동, 1층)",
  "phone": "053-655-4123",
  "lat": 128.57416,
  "lng": 35.8606437
 },
 {
  "id": 420,
  "name": "한가람 내과병원",
  "address": "동구 해동로 101(지저동)",
  "phone": "053-957-3111",
  "lat": 128.641483,
  "lng": 35.8904809
 },
 {
  "id": 421,
  "name": "한국건강관리협회",
  "address": "북구 팔달로 25(노원3가)",
  "phone": "053-341-9010",
  "lat": 128.554021,
  "lng": 35.8922565
 },
 {
  "id": 422,
  "name": "한국건강관리협회 대구지부",
  "address": "동구 장등로 16(신천3동)",
  "phone": "053-755-5385",
  "lat": 128.623544,
  "lng": 35.8688091
 },
 {
  "id": 423,
  "name": "한빛신경외과의원",
  "address": "남구 대명로 180(대명동)",
  "phone": "053-651-8000",
  "lat": 128.577502,
  "lng": 35.8387562
 },
 {
  "id": 424,
  "name": "한사랑 연합내과의원",
  "address": "달성군 현풍면 현풍중앙로 42",
  "phone": "053-611-8575",
  "lat": 128.446214,
  "lng": 35.6933715
 },
 {
  "id": 425,
  "name": "한성병원",
  "address": "북구 칠성남로30길 28(칠성동2가)",
  "phone": "053-422-3114",
  "lat": 128.597876,
  "lng": 35.876281
 },
 {
  "id": 426,
  "name": "항보외과의원",
  "address": "수성구 청수로 11(중동)",
  "phone": "053-762-7248",
  "lat": 128.609415,
  "lng": 35.8412801
 },
 {
  "id": 427,
  "name": "해맑은안과의원",
  "address": "중구 국채보상로 598(동성로2가)",
  "phone": "053-431-6688",
  "lat": 128.596034,
  "lng": 35.8705562
 },
 {
  "id": 428,
  "name": "허용도신경외과",
  "address": "수성 지범로 183(지산동)",
  "phone": "053-782-7967",
  "lat": 128.639677,
  "lng": 35.8215869
 },
 {
  "id": 429,
  "name": "현대의원",
  "address": "동구 반야월로 228(동호동)",
  "phone": "053-961-1326",
  "lat": 128.713475,
  "lng": 35.8719222
 },
 {
  "id": 430,
  "name": "홍외과의원",
  "address": "달서구 달구벌대로 1222(이곡동)",
  "phone": "053-582-3638",
  "lat": 128.501016,
  "lng": 35.8516304
 },
 {
  "id": 431,
  "name": "효성정형외과",
  "address": "서구 서대구로 177-1(평리동)",
  "phone": "053-555-1011",
  "lat": 128.55457,
  "lng": 35.8739111
 },
 {
  "id": 432,
  "name": "힘센병원",
  "address": "남구 봉덕로 71(봉덕동)",
  "phone": "053-470-1000",
  "lat": 128.598915,
  "lng": 35.845277
 },
 {
  "id": 433,
  "name": "SUN우정병원",
  "address": "울산 중구 명륜로 17",
  "phone": "052-703-7000",
  "lat": 129.308502,
  "lng": 35.5540268
 },
 {
  "id": 434,
  "name": "강남동강병원",
  "address": "울산 남구 돋질로 80",
  "phone": "052-241-3712",
  "lat": 129.314579,
  "lng": 35.538349
 },
 {
  "id": 435,
  "name": "경찰공제회울산의원",
  "address": "울산 울주군 상북면 봉화로 342 울산운전면허시험장 지하1층",
  "phone": "052-263-2041",
  "lat": 129.099967,
  "lng": 35.5754819
 },
 {
  "id": 436,
  "name": "김복근내과의원",
  "address": "울산 남구 신정로 39 2층",
  "phone": "052-267-0975",
  "lat": 129.321836,
  "lng": 35.5353983
 },
 {
  "id": 437,
  "name": "동강병원",
  "address": "울산 중구 태화로 239",
  "phone": "052-241-1114",
  "lat": 129.301946,
  "lng": 35.5534312
 },
 {
  "id": 438,
  "name": "마더스병원",
  "address": "울산 남구 화합로 107",
  "phone": "052-270-7000",
  "lat": 129.340317,
  "lng": 35.534095
 },
 {
  "id": 439,
  "name": "서생의원",
  "address": "울산 울주군 서생면 해맞이로 872",
  "phone": "052-239-7582",
  "lat": 129.323656,
  "lng": 35.3480674
 },
 {
  "id": 440,
  "name": "서울산보람병원",
  "address": "울산 울주군 삼남읍 중평로 53",
  "phone": "052-255-7146",
  "lat": 129.120711,
  "lng": 35.5590613
 },
 {
  "id": 441,
  "name": "성모정형외과의원",
  "address": "울산 남구 수암로 95",
  "phone": "052-260-7576",
  "lat": 129.318315,
  "lng": 35.529492
 },
 {
  "id": 442,
  "name": "에이치엠병원",
  "address": "울산 남구 중앙로167번길 26",
  "phone": "052-226-0285",
  "lat": 129.311125,
  "lng": 35.5355319
 },
 {
  "id": 443,
  "name": "울산대학교병원",
  "address": "울산광역시 동구 대학병원로 25",
  "phone": "052-250-8340",
  "lat": 129.428782,
  "lng": 35.5199117
 },
 {
  "id": 444,
  "name": "울산선암의원",
  "address": "울산 남구 두왕로64번길 5-24",
  "phone": "052-228-8108",
  "lat": 129.309501,
  "lng": 35.510045
 },
 {
  "id": 445,
  "name": "울산세민병원",
  "address": "울산 중구 학성로 184",
  "phone": "052-290-0100",
  "lat": 129.330981,
  "lng": 35.5565948
 },
 {
  "id": 446,
  "name": "울산시티병원",
  "address": "울산 북구 산업로 1007",
  "phone": "052-280-9000",
  "lat": 129.358589,
  "lng": 35.582855
 },
 {
  "id": 447,
  "name": "울산엘리야병원",
  "address": "울산 북구 호계로 285",
  "phone": "052-290-2230",
  "lat": 129.35068,
  "lng": 35.6288455
 },
 {
  "id": 448,
  "name": "울산제일병원",
  "address": "울산남구 남산로354번길 26",
  "phone": "052-220-3560",
  "lat": 129.307047,
  "lng": 35.5482788
 },
 {
  "id": 449,
  "name": "울산학문외과의원",
  "address": "울산 북구 호계로 374",
  "phone": "052-282-1414",
  "lat": 129.348072,
  "lng": 35.6358974
 },
 {
  "id": 450,
  "name": "인구보건복지협회 울산지회",
  "address": "울산 남구 봉월로 63",
  "phone": "052-273-4463",
  "lat": 129.305127,
  "lng": 35.5385931
 },
 {
  "id": 451,
  "name": "좋은삼정병원",
  "address": "울산 남구 북부순환도로 51",
  "phone": "052-220-7676",
  "lat": 129.269093,
  "lng": 35.5528194
 },
 {
  "id": 452,
  "name": "중앙병원",
  "address": "울산 남구 문수로480번길 10",
  "phone": "052-226-1880",
  "lat": 129.305212,
  "lng": 35.5315362
 },
 {
  "id": 453,
  "name": "가장성모내과의원",
  "address": "대전 서구 도산로 286(가장동)",
  "phone": "042-538-7575",
  "lat": 127.385612,
  "lng": 36.3319679
 },
 {
  "id": 454,
  "name": "건강미내과의원",
  "address": "대전 서구 둔산남로 46 BYC(둔산동)",
  "phone": "042-482-0944",
  "lat": 127.382495,
  "lng": 36.3484243
 },
 {
  "id": 455,
  "name": "고운손병원",
  "address": "대전 서구 둔산서로 59(둔산2동, 8층)",
  "phone": "042-472-7445",
  "lat": 127.382568,
  "lng": 36.3518395
 },
 {
  "id": 456,
  "name": "관저성모의원",
  "address": "대전 서구 관저북로 78(관저동)",
  "phone": "042-545-7575",
  "lat": 127.337341,
  "lng": 36.3086197
 },
 {
  "id": 457,
  "name": "근로복지공단 대전병원",
  "address": "대전 대덕구 계족로 637(법동)",
  "phone": "042-670-5114",
  "lat": 127.428502,
  "lng": 36.368572
 },
 {
  "id": 458,
  "name": "금강의원",
  "address": "대전 동구 동서대로 1632(성남동)",
  "phone": "042-626-6541",
  "lat": 127.43186,
  "lng": 36.3469589
 },
 {
  "id": 459,
  "name": "김봉천정형외과의원",
  "address": "대전 서구 계백로 1130(가수원동)",
  "phone": "042-541-4330",
  "lat": 127.349089,
  "lng": 36.3038459
 },
 {
  "id": 460,
  "name": "김진혁외과의원",
  "address": "대전 동구 대전천동로 574(중동)",
  "phone": "042-256-9179",
  "lat": 127.428144,
  "lng": 36.3315262
 },
 {
  "id": 461,
  "name": "김학영정형외과의원",
  "address": "대전 중구 계룡로 945(대사동)",
  "phone": "042-254-7966",
  "lat": 127.417029,
  "lng": 36.3191112
 },
 {
  "id": 462,
  "name": "나상연정형외과",
  "address": "대전 동구 동대전로 59-1(대동)",
  "phone": "042-628-3599",
  "lat": 127.441217,
  "lng": 36.3290367
 },
 {
  "id": 463,
  "name": "나우내과의원",
  "address": "대전 서구 계룡로 356(갈마동)",
  "phone": "0507-1396-9008",
  "lat": 127.368091,
  "lng": 36.3532275
 },
 {
  "id": 464,
  "name": "늘푸른의원",
  "address": "대전 중구 대둔산로 397 3층",
  "phone": "042-586-8275",
  "lat": 127.386059,
  "lng": 36.3050754
 },
 {
  "id": 465,
  "name": "대전병원",
  "address": "대전 대덕구 대전로 1215(오정동)",
  "phone": "042-625-0700",
  "lat": 127.417852,
  "lng": 36.3626889
 },
 {
  "id": 466,
  "name": "대전보훈병원",
  "address": "대전 대덕구 대청로82번길 147",
  "phone": "1800-3100",
  "lat": 127.439742,
  "lng": 36.4473466
 },
 {
  "id": 467,
  "name": "대전엑스포정형외과의원",
  "address": "대전 유성구 유성대로 1726(전민동)",
  "phone": "042-861-2022",
  "lat": 127.400925,
  "lng": 36.3994421
 },
 {
  "id": 468,
  "name": "대전의원",
  "address": "대전 동구 산서로1660번길 90(대별동)",
  "phone": "042-271-8620",
  "lat": 127.462051,
  "lng": 36.2849179
 },
 {
  "id": 469,
  "name": "대전한국병원",
  "address": "대전 동구 동서대로 1672(성남동)",
  "phone": "042-606-1000",
  "lat": 127.435755,
  "lng": 36.3483146
 },
 {
  "id": 470,
  "name": "대전한일병원",
  "address": "대전 대덕구 대화1길 6(대화동)",
  "phone": "042-620-8114",
  "lat": 127.41404,
  "lng": 36.3666763
 },
 {
  "id": 471,
  "name": "대한정형외과",
  "address": "대전 동구 동대전로 97(대동)",
  "phone": "042-621-4318",
  "lat": 127.443768,
  "lng": 36.3311991
 },
 {
  "id": 472,
  "name": "덕인의원",
  "address": "대전 동구 대전로 782(원동)",
  "phone": "042-272-4551",
  "lat": 127.43388,
  "lng": 36.329514
 },
 {
  "id": 473,
  "name": "데일리연합의원",
  "address": "대전 서구 관저로 27, 거성프라자 4층(관저동)",
  "phone": "042-716-0365",
  "lat": 127.326124,
  "lng": 36.2967641
 },
 {
  "id": 474,
  "name": "도마정형외과",
  "address": "대전 서구 둔산로 63(도마동)",
  "phone": "042-536-8575",
  "lat": 127.380984,
  "lng": 36.3515651
 },
 {
  "id": 475,
  "name": "동양정형외과",
  "address": "대전 동구 계족로 71(신흥동)",
  "phone": "042-274-1400",
  "lat": 127.443511,
  "lng": 36.3212511
 },
 {
  "id": 476,
  "name": "둔산내과의원",
  "address": "대전 서구 둔산로 212(둔산3동)",
  "phone": "042-487-0770",
  "lat": 127.397414,
  "lng": 36.3510342
 },
 {
  "id": 477,
  "name": "둔산안과의원",
  "address": "대전 서구 청사로 65 황실타운(월평동, 황실코아 306호)",
  "phone": "042-486-3420",
  "lat": 127.370925,
  "lng": 36.3610499
 },
 {
  "id": 478,
  "name": "메디안내과의원",
  "address": "대전 유성구 노은로 170 스타시티",
  "phone": "042-867-8275",
  "lat": 127.318425,
  "lng": 36.3748264
 },
 {
  "id": 479,
  "name": "미소가득한내과의원",
  "address": "대전 서구 대덕대로 226 명동프라자 5층",
  "phone": "042-472-1090",
  "lat": 127.379964,
  "lng": 36.3525687
 },
 {
  "id": 480,
  "name": "민들레의료복지사회적협동조합",
  "address": "대전 대덕구 계족로663번길 26(법동)",
  "phone": "042-716-5002",
  "lat": 127.427333,
  "lng": 36.3707479
 },
 {
  "id": 481,
  "name": "바른손외과의원",
  "address": "대전 중구 보문로 78(부사로)",
  "phone": "042-253-0357",
  "lat": 127.432522,
  "lng": 36.3135772
 },
 {
  "id": 482,
  "name": "박붕연내과의원",
  "address": "대전 유성구 반석로 23 제일프라자(반석동)",
  "phone": "0507-1373-4375",
  "lat": 127.312082,
  "lng": 36.3912894
 },
 {
  "id": 483,
  "name": "서울가정의학과의원",
  "address": "대전 서구 변동로 49(변동)",
  "phone": "042-531-9835",
  "lat": 127.378822,
  "lng": 36.3258435
 },
 {
  "id": 484,
  "name": "선사내과의원",
  "address": "대전 서구 청사로 121(월평동)",
  "phone": "042-486-5471",
  "lat": 127.377282,
  "lng": 36.3600839
 },
 {
  "id": 485,
  "name": "성모외과의원",
  "address": "대전 유성구 진잠로78번길 70(원내동)",
  "phone": "042-543-7582",
  "lat": 127.319877,
  "lng": 36.2991691
 },
 {
  "id": 486,
  "name": "성민내과의원",
  "address": "대전 서구 대덕대로167번길 5 영호빌딩(갈마동)",
  "phone": "042-524-5930",
  "lat": 127.375978,
  "lng": 36.3484088
 },
 {
  "id": 487,
  "name": "세란의원",
  "address": "대전광역시 서구 복수동 282",
  "phone": "042-585-2509",
  "lat": 127.375788,
  "lng": 36.3087037
 },
 {
  "id": 488,
  "name": "세형정형외과",
  "address": "대전 대덕구 석봉로3번길 35",
  "phone": "042-931-1826",
  "lat": 127.420317,
  "lng": 36.4484347
 },
 {
  "id": 489,
  "name": "심안과의원(대덕구)",
  "address": "대전 대덕구 신탄진로 790(신탄진동, 4층)",
  "phone": "042-931-4502",
  "lat": 127.429829,
  "lng": 36.4479864
 },
 {
  "id": 490,
  "name": "엑스포내과의원",
  "address": "대전 유성구 엑스포로 467-1(전민동)",
  "phone": "042-863-6633",
  "lat": 127.404564,
  "lng": 36.3981592
 },
 {
  "id": 491,
  "name": "연구보건복지협회 가족보건의원",
  "address": "대전 중구 오류로 98(오류동)",
  "phone": "042-712-1300",
  "lat": 127.402615,
  "lng": 36.3290553
 },
 {
  "id": 492,
  "name": "예일의원",
  "address": "대전 대덕구 신탄진로 836(신탄진동, 드림빌딩)",
  "phone": "042-936-4040",
  "lat": 127.429004,
  "lng": 36.4520175
 },
 {
  "id": 493,
  "name": "우리들외과의원",
  "address": "대전 유성구 봉산로 27(송강동, 송강프라자)",
  "phone": "042-935-1116",
  "lat": 127.386436,
  "lng": 36.4359326
 },
 {
  "id": 494,
  "name": "이내과의원",
  "address": "대전광역시 중구 중교로 15 (대흥동)",
  "phone": "042-221-7575",
  "lat": 127.421569,
  "lng": 36.3246736
 },
 {
  "id": 495,
  "name": "이호외과의원",
  "address": "대전 서구 도산로 398(용문동)",
  "phone": "042-537-2533",
  "lat": 127.394501,
  "lng": 36.3389952
 },
 {
  "id": 496,
  "name": "인제정형외과",
  "address": "대전 서구 계백로 1264(정림동)",
  "phone": "042-585-5900",
  "lat": 127.363288,
  "lng": 36.3069759
 },
 {
  "id": 497,
  "name": "장안외과의원",
  "address": "대전 대덕구 계족로 561(중리동)",
  "phone": "042-637-1700",
  "lat": 127.431194,
  "lng": 36.3616414
 },
 {
  "id": 498,
  "name": "참내과의원",
  "address": "대전 중구 대종로 299(부사동)",
  "phone": "042-221-7582",
  "lat": 127.435356,
  "lng": 36.3125757
 },
 {
  "id": 499,
  "name": "참사랑정형외과의원",
  "address": "대전 유성구 노은로 144(지족동, 노은타운)",
  "phone": "042-476-8575",
  "lat": 127.318505,
  "lng": 36.3725372
 },
 {
  "id": 500,
  "name": "청담내과의원",
  "address": "대전 대덕구 동춘당로 179(법동, 골드타워)",
  "phone": "042-635-7576",
  "lat": 127.431627,
  "lng": 36.3673442
 },
 {
  "id": 501,
  "name": "충남대학교병원",
  "address": "대전 중구 문화로 282(대사동)",
  "phone": "042-280-8530",
  "lat": 127.416906,
  "lng": 36.3168226
 },
 {
  "id": 502,
  "name": "테크노본정형외과의원",
  "address": "대전 유성구 테크노중앙로 50 디티비안S A동 405호",
  "phone": "042-721-7576",
  "lat": 127.390637,
  "lng": 36.4262676
 },
 {
  "id": 503,
  "name": "튼튼한정형외과의원",
  "address": "대전 유성구 관평2로 7-7(관평동, 5-7층)",
  "phone": "042-936-1119",
  "lat": 127.391692,
  "lng": 36.4254801
 },
 {
  "id": 504,
  "name": "플러스정형외과",
  "address": "대전 유성구 반석로 16(반석동, 반석크리닉빌딩)",
  "phone": "042-826-8275",
  "lat": 127.312653,
  "lng": 36.3918376
 },
 {
  "id": 505,
  "name": "한겨례정형외과의원",
  "address": "대전 유성구 계룡로 37(봉명동)",
  "phone": "042-823-7881",
  "lat": 127.335125,
  "lng": 36.3556491
 },
 {
  "id": 506,
  "name": "한마음의원",
  "address": "대전 서구 문정로 30(탄방동)",
  "phone": "042-472-5022",
  "lat": 127.382897,
  "lng": 36.3463142
 },
 {
  "id": 507,
  "name": "현대외과의원",
  "address": "대전 서구 도산로 237(내동)",
  "phone": "042-537-9596",
  "lat": 127.381466,
  "lng": 36.3292055
 },
 {
  "id": 508,
  "name": "현대정형외과의원",
  "address": "대전광역시 동구 가양동 437-7 마리아빌딩",
  "phone": "042-621-7585",
  "lat": 127.441801,
  "lng": 36.3437957
 },
 {
  "id": 509,
  "name": "홍제요양병원",
  "address": "대전 대덕구 동서대로 1805(송촌동)",
  "phone": "042-624-7582",
  "lat": 127.444826,
  "lng": 36.3567973
 },
 {
  "id": 510,
  "name": "가족보건의원",
  "address": "강원 춘천시 김유정로 1846",
  "phone": "033-260-8900",
  "lat": 127.734582,
  "lng": 37.8517379
 },
 {
  "id": 511,
  "name": "강남병원",
  "address": "강원 춘천시 경춘로 2364",
  "phone": "033-240-7000",
  "lat": 127.720831,
  "lng": 37.8642916
 },
 {
  "id": 512,
  "name": "강원대학교병원",
  "address": "강원 춘천시 백령로 156",
  "phone": "033-258-2000",
  "lat": 127.744518,
  "lng": 37.8749195
 },
 {
  "id": 513,
  "name": "서울외과의원",
  "address": "강원 철원군 동송읍 이평2로 13",
  "phone": "033-455-9292",
  "lat": 127.220733,
  "lng": 38.2067509
 },
 {
  "id": 514,
  "name": "양구군보건소",
  "address": "강원 양구군 양구읍 관공서로 42",
  "phone": "033-481-2400",
  "lat": 127.990038,
  "lng": 38.1097691
 },
 {
  "id": 515,
  "name": "양구성심병원",
  "address": "강원 양구군 양구읍 중심로 160",
  "phone": "033-480-8800",
  "lat": 127.991133,
  "lng": 38.104742
 },
 {
  "id": 516,
  "name": "인성병원",
  "address": "강원 춘천시 금강로 39",
  "phone": "033-253-3030",
  "lat": 127.726907,
  "lng": 37.8812908
 },
 {
  "id": 517,
  "name": "인제고려병원",
  "address": "강원 인제군 인제읍 비봉로 19",
  "phone": "033-461-0088",
  "lat": 128.173493,
  "lng": 38.0677052
 },
 {
  "id": 518,
  "name": "인제군보건소",
  "address": "강원 인제군 인제읍 인제로140번길 34",
  "phone": "033-461-2425",
  "lat": 128.168718,
  "lng": 38.0633835
 },
 {
  "id": 519,
  "name": "철원군보건소",
  "address": "강원 철원군 갈말읍 군탄로 16",
  "phone": "033-450-5550",
  "lat": 127.302834,
  "lng": 38.1481909
 },
 {
  "id": 520,
  "name": "철원병원",
  "address": "강원 철원군 갈말읍 명성로 208",
  "phone": "033-452-5011",
  "lat": 127.307964,
  "lng": 38.1501866
 },
 {
  "id": 521,
  "name": "춘천성심병원",
  "address": "강원 춘천시 삭주로 77",
  "phone": "033-240-5000",
  "lat": 127.739571,
  "lng": 37.8837346
 },
 {
  "id": 522,
  "name": "춘천의원 (춘천면허시험장 내)",
  "address": "강원 춘천시 신북읍 신북로 247",
  "phone": "033-242-2859",
  "lat": 127.750516,
  "lng": 37.9474325
 },
 {
  "id": 523,
  "name": "한국건강관리협회강원도지부",
  "address": "강원 춘천시 남춘로 50",
  "phone": "033-260-0800",
  "lat": 127.73268,
  "lng": 37.8650024
 },
 {
  "id": 524,
  "name": "홍천군보건소",
  "address": "강원 홍천군 홍천읍 신장대로 5",
  "phone": "033-434-4000",
  "lat": 127.876792,
  "lng": 37.6901032
 },
 {
  "id": 525,
  "name": "홍천아산병원",
  "address": "강원 홍천군 홍천읍 산림공원1길 17",
  "phone": "033-430-5151",
  "lat": 127.894759,
  "lng": 37.6908334
 },
 {
  "id": 526,
  "name": "화천군보건의료원",
  "address": "강원 화천군 화천읍 강변로 111",
  "phone": "033-442-4424",
  "lat": 127.709107,
  "lng": 38.1075631
 },
 {
  "id": 527,
  "name": "강릉동인병원",
  "address": "강릉시 강릉대로419번길 42",
  "phone": "033-651-6161",
  "lat": 128.90704,
  "lng": 37.7743608
 },
 {
  "id": 528,
  "name": "강릉시보건소",
  "address": "강릉 남부로17번길38",
  "phone": "033-660-3054",
  "lat": 128.882682,
  "lng": 37.7428536
 },
 {
  "id": 529,
  "name": "강릉시보건소주문진통합보건지소",
  "address": "강릉 주문진 항구로19",
  "phone": "033-660-3500",
  "lat": 128.823226,
  "lng": 37.8938764
 },
 {
  "id": 530,
  "name": "강릉아산병원",
  "address": "강릉 사천면 방동길38",
  "phone": "033-610-3691",
  "lat": 128.858537,
  "lng": 37.8184206
 },
 {
  "id": 531,
  "name": "강릉의료원",
  "address": "강릉 경강로 2007",
  "phone": "033-610-1200",
  "lat": 128.889009,
  "lng": 37.7494457
 },
 {
  "id": 532,
  "name": "고려병원",
  "address": "강릉 옥가로 30",
  "phone": "033-649-0106",
  "lat": 128.899747,
  "lng": 37.7589932
 },
 {
  "id": 533,
  "name": "고성군보건소",
  "address": "고성 간성읍 수성로30",
  "phone": "033-681-4000",
  "lat": 128.472045,
  "lng": 38.3775001
 },
 {
  "id": 534,
  "name": "동해동인병원",
  "address": "동해 하평로 26",
  "phone": "033-530-0114",
  "lat": 129.107367,
  "lng": 37.5300608
 },
 {
  "id": 535,
  "name": "동해병원",
  "address": "동해시 하평로 11",
  "phone": "033-530-3250",
  "lat": 129.107845,
  "lng": 37.5313765
 },
 {
  "id": 536,
  "name": "동해시보건소",
  "address": "동해시 천곡로100-2",
  "phone": "033-530-2403",
  "lat": 129.117037,
  "lng": 37.5228254
 },
 {
  "id": 537,
  "name": "백신경외과",
  "address": "동해 동해대로 5461",
  "phone": "033-533-8181",
  "lat": 129.104459,
  "lng": 37.5296082
 },
 {
  "id": 538,
  "name": "서선원외과",
  "address": "동해 동해대로 5007",
  "phone": "033-521-1308",
  "lat": 129.110035,
  "lng": 37.4930428
 },
 {
  "id": 539,
  "name": "서울아산의원",
  "address": "속초 중앙로88",
  "phone": "033-635-6565",
  "lat": 128.585665,
  "lng": 38.2014266
 },
 {
  "id": 540,
  "name": "서울의원",
  "address": "평창 진부로 진부중앙로 88",
  "phone": "033-336-5577",
  "lat": 128.560352,
  "lng": 37.6388852
 },
 {
  "id": 541,
  "name": "성심외과의원",
  "address": "강릉 율곡로 2792",
  "phone": "033-645-4082",
  "lat": 128.901459,
  "lng": 37.7544974
 },
 {
  "id": 542,
  "name": "속초보건소",
  "address": "속초 수복로 36",
  "phone": "033-639-2912",
  "lat": 128.57586,
  "lng": 38.1961537
 },
 {
  "id": 543,
  "name": "속초의료원",
  "address": "속초 영랑호반길 3",
  "phone": "033-630-6109",
  "lat": 128.588824,
  "lng": 38.2164995
 },
 {
  "id": 544,
  "name": "아나병원",
  "address": "강릉 용지로 129",
  "phone": "033-642-1100",
  "lat": 128.902996,
  "lng": 37.7604812
 },
 {
  "id": 545,
  "name": "양양군보건소",
  "address": "양양 양양 양양로 9-5",
  "phone": "033-670-2550",
  "lat": 128.627361,
  "lng": 38.0778681
 },
 {
  "id": 546,
  "name": "오형균정형외과",
  "address": "동해 발한로 104",
  "phone": "033-532-8244",
  "lat": 129.102201,
  "lng": 37.5414584
 },
 {
  "id": 547,
  "name": "유주왕외과",
  "address": "강릉 주문진읍 해안3길7",
  "phone": "033-662-1500",
  "lat": 128.825719,
  "lng": 37.8857304
 },
 {
  "id": 548,
  "name": "인심의원",
  "address": "속초 중앙로 199",
  "phone": "033-633-3220",
  "lat": 128.592459,
  "lng": 38.208298
 },
 {
  "id": 549,
  "name": "정의흠외과",
  "address": "강릉 경강로 2085",
  "phone": "033-646-2630",
  "lat": 128.894975,
  "lng": 37.7542865
 },
 {
  "id": 550,
  "name": "제일이비인후과의원",
  "address": "강릉 문화의길 15",
  "phone": "033-648-2946",
  "lat": 128.893954,
  "lng": 37.7551948
 },
 {
  "id": 551,
  "name": "조훈외과의원",
  "address": "속초 수복로93",
  "phone": "033-633-7771",
  "lat": 128.579193,
  "lng": 38.2003788
 },
 {
  "id": 552,
  "name": "평창군의료원",
  "address": "평창 평창 군청길 77",
  "phone": "033-332-4000",
  "lat": 128.390366,
  "lng": 37.3706672
 },
 {
  "id": 553,
  "name": "한마음병원",
  "address": "동해 중앙로 210",
  "phone": "033-533-8275",
  "lat": 129.115885,
  "lng": 37.5196661
 },
 {
  "id": 554,
  "name": "혜민요양병원",
  "address": "평창 봉평면 북길동길 17",
  "phone": "033-336-0216",
  "lat": 128.37659,
  "lng": 37.6231796
 },
 {
  "id": 555,
  "name": "대성병원",
  "address": "강원도 횡성군 횡성읍 횡성로 275",
  "phone": "033-343-0901",
  "lat": 127.980111,
  "lng": 37.4784317
 },
 {
  "id": 556,
  "name": "만종의원",
  "address": "강원도 원주시 호저면 사제로 596",
  "phone": "033-747-8544",
  "lat": 127.898333,
  "lng": 37.3385452
 },
 {
  "id": 557,
  "name": "성지병원",
  "address": "강원도 원주시 원일로 22",
  "phone": "033-760-3114",
  "lat": 127.954221,
  "lng": 37.3455234
 },
 {
  "id": 558,
  "name": "영월의료원",
  "address": "강원도 영월군 영월읍 중앙1로 59",
  "phone": "033-370-9101",
  "lat": 128.465093,
  "lng": 37.1865206
 },
 {
  "id": 559,
  "name": "영월군 보건소",
  "address": "강원도 영월군 영월읍 하송로 44",
  "phone": "033-372-4000",
  "lat": 128.463348,
  "lng": 37.1841996
 },
 {
  "id": 560,
  "name": "원의원",
  "address": "강원도 원주시 우산로 42",
  "phone": "033-744-8275",
  "lat": 127.936648,
  "lng": 37.3680713
 },
 {
  "id": 561,
  "name": "원주 의료원",
  "address": "강원 원주 서원대로 387",
  "phone": "033-760-4500",
  "lat": 127.948646,
  "lng": 37.3329543
 },
 {
  "id": 562,
  "name": "원주시 보건소",
  "address": "강원 원주 원일로 139",
  "phone": "033-737-4011",
  "lat": 127.946781,
  "lng": 37.3515657
 },
 {
  "id": 563,
  "name": "주천 통합보건지소",
  "address": "강원도 영월군 주천면 송학주천로 1461",
  "phone": "033-372-7156",
  "lat": 128.270405,
  "lng": 37.2735666
 },
 {
  "id": 564,
  "name": "푸른사랑병원",
  "address": "강원도 영월군 영월읍 중앙로 10",
  "phone": "033-374-7575",
  "lat": 128.464895,
  "lng": 37.1832885
 },
 {
  "id": 565,
  "name": "횡성군 보건소",
  "address": "강원도 횡성군 횡성읍 횡성로 379",
  "phone": "033-340-5622",
  "lat": 127.984341,
  "lng": 37.487181
 },
 {
  "id": 566,
  "name": "강원도 삼척의료원",
  "address": "강원 삼척시 오십천로 418",
  "phone": "033-572-1141",
  "lat": 129.163813,
  "lng": 37.4403532
 },
 {
  "id": 567,
  "name": "근로복지공단 정선병원",
  "address": "강원 정선군 정선읍 봉양1길 145",
  "phone": "033-560-7100",
  "lat": 128.658889,
  "lng": 37.3832535
 },
 {
  "id": 568,
  "name": "근로복지공단 태백병원",
  "address": "강원 태백시 보드미길 8",
  "phone": "033-580-3114",
  "lat": 129.004176,
  "lng": 37.1039923
 },
 {
  "id": 569,
  "name": "삼척병원(선한이웃병원)",
  "address": "강원 삼척시 오십천로 506",
  "phone": "033-574-9114",
  "lat": 129.17268,
  "lng": 37.4367853
 },
 {
  "id": 570,
  "name": "삼척시보건소 도계보건출장소",
  "address": "강원 삼척시 도계읍 전두안길 56",
  "phone": "033-541-4000",
  "lat": 129.043226,
  "lng": 37.233136
 },
 {
  "id": 571,
  "name": "삼척시보건소 원덕보건출장소",
  "address": "강원도 삼척시 원덕읍 삼척로 445-53",
  "phone": "033-573-4000",
  "lat": 129.334414,
  "lng": 37.1757315
 },
 {
  "id": 572,
  "name": "우리들의원",
  "address": "강원 태백시 감천로 18",
  "phone": "033-553-6600",
  "lat": 128.987989,
  "lng": 37.1590219
 },
 {
  "id": 573,
  "name": "정선군립병원",
  "address": "강원 정선군 사북읍 지장천로 727",
  "phone": "033-592-3121",
  "lat": 128.826154,
  "lng": 37.2257169
 },
 {
  "id": 574,
  "name": "정선군보건소",
  "address": "강원 정선군 정선읍 녹송로 33",
  "phone": "033-560-2116",
  "lat": 128.671407,
  "lng": 37.3800503
 },
 {
  "id": 575,
  "name": "제일의원",
  "address": "강원 정선군 사북읍 사북5길 1",
  "phone": "0507-1329-2115",
  "lat": 128.81985,
  "lng": 37.2273454
 },
 {
  "id": 576,
  "name": "태백시보건소",
  "address": "강원 태백시 태백로 905",
  "phone": "033-552-4000",
  "lat": 128.992445,
  "lng": 37.1765328
 },
 {
  "id": 577,
  "name": "LS전선(주)부속의원",
  "address": "경북 구미 공단 190",
  "phone": "054-469-7258",
  "lat": 128.390758,
  "lng": 36.1084316
 },
 {
  "id": 578,
  "name": "강남병원",
  "address": "경북 구미 원평 1037-13",
  "phone": "054-458-9300",
  "lat": 128.34229,
  "lng": 36.1244564
 },
 {
  "id": 579,
  "name": "강남외과의원",
  "address": "경북 김천 평화 255-9",
  "phone": "054-431-1311",
  "lat": 128.112161,
  "lng": 36.1243245
 },
 {
  "id": 580,
  "name": "경북보건의료소비자생활협동조합 해인한의원",
  "address": "경북 영주시 구성로 289",
  "phone": "054-634-7511",
  "lat": 128.627352,
  "lng": 36.8189959
 },
 {
  "id": 581,
  "name": "경북북부제1교도소 부속의원",
  "address": "경북 청송 진보면 양정길 231",
  "phone": "054-874-4500",
  "lat": 129.057107,
  "lng": 36.5529014
 },
 {
  "id": 582,
  "name": "경북북부제3교도소 부속병원",
  "address": "경북 청송 진보면 양정길 231",
  "phone": "054-874-4900",
  "lat": 129.057107,
  "lng": 36.5529014
 },
 {
  "id": 583,
  "name": "경북외과의원",
  "address": "경북 구미 선산 완전 218",
  "phone": "054-482-0508",
  "lat": 128.301211,
  "lng": 36.2413262
 },
 {
  "id": 584,
  "name": "경북의원",
  "address": "경북 예천 예천 동본 554-3",
  "phone": "054-655-2800",
  "lat": 128.467743,
  "lng": 36.6552818
 },
 {
  "id": 585,
  "name": "경북의원",
  "address": "경북 칠곡 약목 복성 965-2",
  "phone": "054-974-8880",
  "lat": 128.365554,
  "lng": 36.0328815
 },
 {
  "id": 586,
  "name": "고령군보건소",
  "address": "경북 고령 고령 연조 563-3",
  "phone": "054-954-1300",
  "lat": 128.26434,
  "lng": 35.7296269
 },
 {
  "id": 587,
  "name": "고령백의원",
  "address": "경북 고령 고령 쾌빈 499",
  "phone": "054-954-3669",
  "lat": 128.268216,
  "lng": 35.7293609
 },
 {
  "id": 588,
  "name": "고령영생병원",
  "address": "경북 고령군 대가야읍 중앙로 33 영생병원",
  "phone": "054-955-2661",
  "lat": 128.271782,
  "lng": 35.729837
 },
 {
  "id": 589,
  "name": "구미강동병원",
  "address": "경북 구미 원평 1036-9",
  "phone": "054-478-9540",
  "lat": 128.344004,
  "lng": 36.1259872
 },
 {
  "id": 590,
  "name": "구미시보건소",
  "address": "경북 구미 지산 853-12",
  "phone": "054-456-7810",
  "lat": 128.345953,
  "lng": 36.1399419
 },
 {
  "id": 591,
  "name": "구미시선산보건소",
  "address": "경북 구미 선산 동부 544-1",
  "phone": "054-481-4000",
  "lat": 128.299946,
  "lng": 36.2441875
 },
 {
  "id": 592,
  "name": "구미현대병원",
  "address": "경북 구미 형곡 857-6",
  "phone": "054-451-7500",
  "lat": 128.339625,
  "lng": 36.1127444
 },
 {
  "id": 593,
  "name": "군위군보건소",
  "address": "경북 군위 군위 서부 157-1",
  "phone": "054-380-6531",
  "lat": 128.566171,
  "lng": 36.2313774
 },
 {
  "id": 594,
  "name": "권가정의학과의원",
  "address": "경북 구미 상모동 73-1.2층",
  "phone": "054-464-9090",
  "lat": 128.355764,
  "lng": 36.086367
 },
 {
  "id": 595,
  "name": "권오영내과의원",
  "address": "경북 김천 평화 34-3",
  "phone": "054-432-8999",
  "lat": 128.117724,
  "lng": 36.1241286
 },
 {
  "id": 596,
  "name": "김두환내과의원",
  "address": "경북 구미 원평 1동 361-16",
  "phone": "054-452-6200",
  "lat": 128.335419,
  "lng": 36.1273807
 },
 {
  "id": 597,
  "name": "김정형외과",
  "address": "경북 구미 봉곡 302-1",
  "phone": "054-452-5665",
  "lat": 128.311311,
  "lng": 36.1491839
 },
 {
  "id": 598,
  "name": "김천남산종합의원",
  "address": "경북 김천 남산 12-6",
  "phone": "054-435-2111",
  "lat": 128.121185,
  "lng": 36.1191309
 },
 {
  "id": 599,
  "name": "김천소년교도소부속의원",
  "address": "경북 김천시 지좌동588",
  "phone": "054-429-5475",
  "lat": 128.14436,
  "lng": 36.1157309
 },
 {
  "id": 600,
  "name": "김천시보건소",
  "address": "경북 김천 신음 128",
  "phone": "054-436-0020",
  "lat": 128.120267,
  "lng": 36.1366669
 },
 {
  "id": 601,
  "name": "김천의료원",
  "address": "경북 김천 모암 85",
  "phone": "054-432-8901",
  "lat": 128.125212,
  "lng": 36.1250678
 },
 {
  "id": 602,
  "name": "김천제일병원",
  "address": "경북 김천 신음 462-14",
  "phone": "054-420-9300",
  "lat": 128.118817,
  "lng": 36.1354639
 },
 {
  "id": 603,
  "name": "늘열린성모구미병원",
  "address": "경북 구미시 송정동 458-7",
  "phone": "054-450-1200",
  "lat": 128.34699,
  "lng": 36.1174199
 },
 {
  "id": 604,
  "name": "대구신경과의원",
  "address": "경북 청송 청송 월막 357-3",
  "phone": "054-873-1407",
  "lat": 129.055996,
  "lng": 36.4327565
 },
 {
  "id": 605,
  "name": "대동의원",
  "address": "경북 문경 가은 왕릉 346-1",
  "phone": "054-571-5516",
  "lat": 128.063719,
  "lng": 36.6436039
 },
 {
  "id": 606,
  "name": "대산외과의원",
  "address": "경북 구미 원평1 964-517",
  "phone": "054-452-2102",
  "lat": 128.337276,
  "lng": 36.1268103
 },
 {
  "id": 607,
  "name": "대성외과의원",
  "address": "경북 구미 고아 원호 442-1",
  "phone": "054-441-3005",
  "lat": 128.330216,
  "lng": 36.1514718
 },
 {
  "id": 608,
  "name": "대신의원",
  "address": "경북 의성 봉양 화전 105-9",
  "phone": "054-833-8347",
  "lat": 128.580201,
  "lng": 36.2990537
 },
 {
  "id": 609,
  "name": "대한내과의원",
  "address": "경북 구미 남통동 14-5 남통빌딩 3.4층",
  "phone": "054-442-7585",
  "lat": 128.323938,
  "lng": 36.1309234
 },
 {
  "id": 610,
  "name": "동광의원",
  "address": "경북 안동 풍산 안교 83-3",
  "phone": "054-858-7775",
  "lat": 128.573348,
  "lng": 36.5795271
 },
 {
  "id": 611,
  "name": "동광의원",
  "address": "경북 상주 서성 147",
  "phone": "054-535-2148",
  "lat": 128.160922,
  "lng": 36.4177213
 },
 {
  "id": 612,
  "name": "동산외과의원",
  "address": "경북 구미 선산 동부 364-3",
  "phone": "054-481-2326",
  "lat": 128.302637,
  "lng": 36.2414549
 },
 {
  "id": 613,
  "name": "명성의료재단 영양병원",
  "address": "경북 영양 영양 서부 100-1",
  "phone": "054-682-0727",
  "lat": 129.117301,
  "lng": 36.6625936
 },
 {
  "id": 614,
  "name": "문경시보건소",
  "address": "경북 문경시 점촌1길 9",
  "phone": "054-555-2033",
  "lat": 128.19756,
  "lng": 36.596245
 },
 {
  "id": 615,
  "name": "문경중앙병원",
  "address": "경북 문경시 중앙로 117-18",
  "phone": "054-555-2011",
  "lat": 128.199167,
  "lng": 36.5961027
 },
 {
  "id": 616,
  "name": "믿음터의원",
  "address": "경북 구미 구포 678-6",
  "phone": "054-475-1963",
  "lat": 128.416134,
  "lng": 36.1289236
 },
 {
  "id": 617,
  "name": "박미애가정의학과의원",
  "address": "경북 칠곡 석적 남율 739",
  "phone": "054-977-4567",
  "lat": 128.392843,
  "lng": 36.0755431
 },
 {
  "id": 618,
  "name": "베스트가정의원",
  "address": "경북 칠곡 석적 중리 141",
  "phone": "054-977-9666",
  "lat": 128.41277,
  "lng": 36.080005
 },
 {
  "id": 619,
  "name": "봉화군보건소",
  "address": "경북 봉화 봉화 내성 285",
  "phone": "054-679-6475",
  "lat": 128.741839,
  "lng": 36.8907237
 },
 {
  "id": 620,
  "name": "봉화제일병원",
  "address": "경북 봉화 봉화 포저 419-4",
  "phone": "054-673-6032",
  "lat": 128.735031,
  "lng": 36.8907692
 },
 {
  "id": 621,
  "name": "봉화해성병원",
  "address": "경북 봉화 봉화 내성 426-6",
  "phone": "054-673-1331",
  "lat": 128.733482,
  "lng": 36.8917018
 },
 {
  "id": 622,
  "name": "부광외과의원",
  "address": "경북 고령 다산 상곡 150-8",
  "phone": "054-956-7582",
  "lat": 128.448388,
  "lng": 35.8250878
 },
 {
  "id": 623,
  "name": "북삼정형외과의원",
  "address": "경북 칠곡 북삼 인평 245-11",
  "phone": "054-973-7582",
  "lat": 128.345882,
  "lng": 36.068032
 },
 {
  "id": 624,
  "name": "산울림병원",
  "address": "경북 칠곡 왜관 금남리 36-6",
  "phone": "054-976-2580",
  "lat": 128.411204,
  "lng": 35.9304699
 },
 {
  "id": 625,
  "name": "삼성연합의원",
  "address": "경북 구미 황상 312-2",
  "phone": "054-474-8575",
  "lat": 128.419566,
  "lng": 36.10731
 },
 {
  "id": 626,
  "name": "삼성의원",
  "address": "경북 구미 신평1 27",
  "phone": "054-465-1300",
  "lat": 128.36159,
  "lng": 36.1241757
 },
 {
  "id": 627,
  "name": "삼성전자(주)2사업장부속의원",
  "address": "경북 구미시 임수동 94-1",
  "phone": "054-479-5088",
  "lat": 128.415798,
  "lng": 36.1096074
 },
 {
  "id": 628,
  "name": "삼성전자(주)구미1사업장부속의원",
  "address": "경북 구미시 공단 259",
  "phone": "054-460-2088",
  "lat": 128.393026,
  "lng": 36.1003852
 },
 {
  "id": 629,
  "name": "상모내과의원",
  "address": "경북 구미시 상사서로 49 조영빌딩 2,3층",
  "phone": "054-462-8575",
  "lat": 128.355195,
  "lng": 36.086824
 },
 {
  "id": 630,
  "name": "상주시보건소",
  "address": "경북 상주 무양 33-4",
  "phone": "054-534-4000",
  "lat": 128.150843,
  "lng": 36.4169176
 },
 {
  "id": 631,
  "name": "상주적십자병원",
  "address": "경북 상주 남성 33-27",
  "phone": "054-534-3501",
  "lat": 128.155154,
  "lng": 36.414425
 },
 {
  "id": 632,
  "name": "상주중앙의원",
  "address": "경북 상주 서성 147",
  "phone": "054-536-6131",
  "lat": 128.160922,
  "lng": 36.4177213
 },
 {
  "id": 633,
  "name": "서울현대정형외과의원",
  "address": "경북 영주 풍기 동부 546",
  "phone": "054-637-5531",
  "lat": 128.528556,
  "lng": 36.8693029
 },
 {
  "id": 634,
  "name": "석적영남정형외과",
  "address": "경북 칠곡군 석적읍 중리 92-5",
  "phone": "054-976-8275",
  "lat": 128.409884,
  "lng": 36.0781556
 },
 {
  "id": 635,
  "name": "성누가의원",
  "address": "경북 군위 군위 서부 390-2",
  "phone": "054-382-9911",
  "lat": 128.565813,
  "lng": 36.236302
 },
 {
  "id": 636,
  "name": "성모신경외과의원",
  "address": "경북 구미 형곡 145-27",
  "phone": "054-451-9119",
  "lat": 128.336237,
  "lng": 36.1113765
 },
 {
  "id": 637,
  "name": "성주군보건소",
  "address": "경북 성주 성주 경산4 436-1",
  "phone": "054-930-6476",
  "lat": 128.278423,
  "lng": 35.9176094
 },
 {
  "id": 638,
  "name": "성주혜성병원",
  "address": "경북 성주 성주 경산 25",
  "phone": "054-932-1212",
  "lat": 128.283422,
  "lng": 35.9177633
 },
 {
  "id": 639,
  "name": "세종정형외과의원",
  "address": "경북 안동 남문 148-1",
  "phone": "054-854-4170",
  "lat": 128.729524,
  "lng": 36.5647054
 },
 {
  "id": 640,
  "name": "수연합정형외과의원",
  "address": "경북 구미 오태 737-8",
  "phone": "054-465-1199",
  "lat": 128.348433,
  "lng": 36.0711393
 },
 {
  "id": 641,
  "name": "순천향대학교부속구미병원",
  "address": "경북 구미 공단 250",
  "phone": "054-463-7151",
  "lat": 128.382174,
  "lng": 36.1034124
 },
 {
  "id": 642,
  "name": "순천향소아과의원",
  "address": "경북 구미 비산 504-4",
  "phone": "054-461-0488",
  "lat": 128.374224,
  "lng": 36.1212741
 },
 {
  "id": 643,
  "name": "순천향정형외과의원",
  "address": "경북 구미 도량1 563-1",
  "phone": "054-451-8575",
  "lat": 128.329092,
  "lng": 36.1368769
 },
 {
  "id": 644,
  "name": "아주안제요양병원",
  "address": "경북 안동 옥야 28-7",
  "phone": "054-841-7550",
  "lat": 128.721174,
  "lng": 36.5649073
 },
 {
  "id": 645,
  "name": "아포종합의원",
  "address": "경북 김천 아포 국사 1114-1",
  "phone": "054-435-5558",
  "lat": 128.260046,
  "lng": 36.1589795
 },
 {
  "id": 646,
  "name": "안동병원",
  "address": "경상북도 안동시 앙실로 11(수상동) ",
  "phone": "054-821-1101",
  "lat": 128.700984,
  "lng": 36.5467709
 },
 {
  "id": 647,
  "name": "안동성소병원",
  "address": "경북 안동시 서동문로 99",
  "phone": "054-857-2321",
  "lat": 128.722287,
  "lng": 36.5677475
 },
 {
  "id": 648,
  "name": "안동시보건소",
  "address": "경북 안동 북문 58",
  "phone": "054-840-5980",
  "lat": 128.729625,
  "lng": 36.5667493
 },
 {
  "id": 649,
  "name": "안동의료원",
  "address": "경북 안동 북문 470",
  "phone": "054-858-8951",
  "lat": 128.731368,
  "lng": 36.5682467
 },
 {
  "id": 650,
  "name": "안정형외과의원",
  "address": "경북 안동 대석 213-7",
  "phone": "054-857-4334",
  "lat": 128.724742,
  "lng": 36.5666488
 },
 {
  "id": 651,
  "name": "엘지디스플레이(주)부속의원",
  "address": "경북 구미시 시미동 163-1",
  "phone": "054-478-3243",
  "lat": 128.411868,
  "lng": 36.0916402
 },
 {
  "id": 652,
  "name": "염광의료재단 성심요양병원",
  "address": "경북 의성 금성 대리 8-11",
  "phone": "054-834-1048",
  "lat": 128.683782,
  "lng": 36.2524251
 },
 {
  "id": 653,
  "name": "영남외과의원",
  "address": "경북 칠곡 약목 복성 865-5",
  "phone": "054-975-2567",
  "lat": 128.352199,
  "lng": 36.0388721
 },
 {
  "id": 654,
  "name": "영양군보건소",
  "address": "경북 영양 영양 서부 292-4",
  "phone": "054-680-6527",
  "lat": 129.115481,
  "lng": 36.6639143
 },
 {
  "id": 655,
  "name": "영주기독병원",
  "address": "경북 영주 영주2 547-2",
  "phone": "054-635-6161",
  "lat": 128.620918,
  "lng": 36.8253096
 },
 {
  "id": 656,
  "name": "영주시보건소",
  "address": "경북 영주 휴천2 466-6",
  "phone": "054-639-6477",
  "lat": 128.621645,
  "lng": 36.8061354
 },
 {
  "id": 657,
  "name": "영주자인병원",
  "address": "경북 영주시 가흥동 1729-3",
  "phone": "054-663-1131",
  "lat": 128.605581,
  "lng": 36.8159399
 },
 {
  "id": 658,
  "name": "영주카톨릭병원",
  "address": "경상북도 영주시 번영로 176",
  "phone": "054-639-8100",
  "lat": 128.62506,
  "lng": 36.8266947
 },
 {
  "id": 659,
  "name": "영풍의료재단 풍기성심연합의원",
  "address": "경북 영주 풍기 동부 197-1",
  "phone": "054-630-2511",
  "lat": 128.53619,
  "lng": 36.8674746
 },
 {
  "id": 660,
  "name": "예스이비인후과",
  "address": "경북 칠곡 북삼 인평 1029-2",
  "phone": "054-975-7117",
  "lat": 128.348589,
  "lng": 36.0705518
 },
 {
  "id": 661,
  "name": "예스정형외과의원",
  "address": "경북 구미 옥계 842-3",
  "phone": "054-454-0908",
  "lat": 128.421884,
  "lng": 36.1367493
 },
 {
  "id": 662,
  "name": "예천군보건소",
  "address": "경북 예천 예천 동본 178",
  "phone": "054-654-2308",
  "lat": 128.465561,
  "lng": 36.6599581
 },
 {
  "id": 663,
  "name": "예천권병원",
  "address": "경북 예천 예천 동본 460-2",
  "phone": "054-654-6614",
  "lat": 128.45897,
  "lng": 36.6573808
 },
 {
  "id": 664,
  "name": "예천제일병원",
  "address": "경북 예천 예천 노하 67",
  "phone": "054-652-2989",
  "lat": 128.455224,
  "lng": 36.6573996
 },
 {
  "id": 665,
  "name": "옥계정형외과의원",
  "address": "경북 구미 옥계 833-1",
  "phone": "054-476-9112",
  "lat": 128.420245,
  "lng": 36.1382196
 },
 {
  "id": 666,
  "name": "왜관장수내과",
  "address": "경상북도 칠곡군 왜관읍 중앙로 166 (왜관읍) ",
  "phone": "054-971-8273",
  "lat": 128.399652,
  "lng": 35.9898105
 },
 {
  "id": 667,
  "name": "왜관정형외과",
  "address": "경북 칠곡 왜관 왜관 220-20",
  "phone": "054-974-8811",
  "lat": 128.399749,
  "lng": 35.9896292
 },
 {
  "id": 668,
  "name": "의료법인 삼현의료재단 선산제일병원",
  "address": "경북 구미 고아 오로 364-3",
  "phone": "054-714-1900",
  "lat": 128.31617,
  "lng": 36.2171929
 },
 {
  "id": 669,
  "name": "의료법인삼백의료재단 상주성모병원",
  "address": "경북 상주 냉림 350-5",
  "phone": "054-532-5001",
  "lat": 128.159965,
  "lng": 36.4208214
 },
 {
  "id": 670,
  "name": "의료법인왜관병원",
  "address": "경북 칠곡 왜관 왜관 174-54",
  "phone": "054-971-1002",
  "lat": 128.401527,
  "lng": 35.9961327
 },
 {
  "id": 671,
  "name": "의성경북의원",
  "address": "경북 의성 의성 후죽 738",
  "phone": "054-832-2177",
  "lat": 128.697766,
  "lng": 36.3634006
 },
 {
  "id": 672,
  "name": "의성군보건소",
  "address": "경북 의성 의성 도서 104-1",
  "phone": "054-833-0660",
  "lat": 128.697681,
  "lng": 36.345615
 },
 {
  "id": 673,
  "name": "이원두의원",
  "address": "경북 상주 남성 85-38",
  "phone": "054-536-7553",
  "lat": 128.160186,
  "lng": 36.4131868
 },
 {
  "id": 674,
  "name": "인동보건지소",
  "address": "경북 구미 진평 985-35",
  "phone": "054-473-2287",
  "lat": 128.418788,
  "lng": 36.1060487
 },
 {
  "id": 675,
  "name": "일맥의료재단 인애가영주병원",
  "address": "경북 영주 가흥1 1459-2",
  "phone": "054-634-3007",
  "lat": 128.619422,
  "lng": 36.8149594
 },
 {
  "id": 676,
  "name": "재단법인새생명재단제일연합의원",
  "address": "경상북도 구미시 비산동 504-32",
  "phone": "054-462-2569",
  "lat": 128.374238,
  "lng": 36.1208144
 },
 {
  "id": 677,
  "name": "제일신경외과의원",
  "address": "경북 구미 인의 368-3",
  "phone": "054-471-0911",
  "lat": 128.421717,
  "lng": 36.1070863
 },
 {
  "id": 678,
  "name": "제일의원",
  "address": "경북 구미시 선산읍 남문로4길 1",
  "phone": "054-482-0962",
  "lat": 128.301799,
  "lng": 36.2412026
 },
 {
  "id": 679,
  "name": "조내과의원",
  "address": "경북 구미 형곡 132-4",
  "phone": "054-456-0075",
  "lat": 128.332122,
  "lng": 36.1149998
 },
 {
  "id": 680,
  "name": "중앙보건지소",
  "address": "경북 김천 남산 28-18",
  "phone": "054-429-3854",
  "lat": 128.119065,
  "lng": 36.1192408
 },
 {
  "id": 681,
  "name": "차의과대학교부속구미차병원",
  "address": "경북 구미 형곡 855",
  "phone": "054-450-9840",
  "lat": 128.340564,
  "lng": 36.1144101
 },
 {
  "id": 682,
  "name": "청봉의료재단 성누가병원",
  "address": "경북 영주 영주2 536-4",
  "phone": "054-639-9000",
  "lat": 128.624634,
  "lng": 36.8214026
 },
 {
  "id": 683,
  "name": "청송군보건의료원",
  "address": "경북 청송 청송 금곡 1056-54",
  "phone": "054-870-7138",
  "lat": 129.051761,
  "lng": 36.4311535
 },
 {
  "id": 684,
  "name": "최인환의원",
  "address": "경북 김천 지좌 440-104",
  "phone": "054-436-7582",
  "lat": 128.144002,
  "lng": 36.119357
 },
 {
  "id": 685,
  "name": "칠곡군보건소",
  "address": "경북 칠곡 왜관 석전 262-1",
  "phone": "054-973-4000",
  "lat": 128.41864,
  "lng": 35.9907141
 },
 {
  "id": 686,
  "name": "카톨릭 의원",
  "address": "경북 구미 선산 동부 312-24",
  "phone": "054-481-7525",
  "lat": 128.302811,
  "lng": 36.239849
 },
 {
  "id": 687,
  "name": "큰나무정형외과의원",
  "address": "경북 구미 인의 365-29",
  "phone": "054-473-8575",
  "lat": 128.42286,
  "lng": 36.1089381
 },
 {
  "id": 688,
  "name": "탑정형외과연합의원",
  "address": "경북 구미 옥계 639-4",
  "phone": "054-475-5119",
  "lat": 128.416726,
  "lng": 36.1371709
 },
 {
  "id": 689,
  "name": "하늘천의원",
  "address": "경북 안동 풍산 안교 67",
  "phone": "054-858-4023",
  "lat": 128.57511,
  "lng": 36.5788281
 },
 {
  "id": 690,
  "name": "한민내과의원",
  "address": "경북 구미 원평3 105-7",
  "phone": "054-456-6615",
  "lat": 128.329071,
  "lng": 36.1296951
 },
 {
  "id": 691,
  "name": "한일외과의원",
  "address": "경상북도 안동시 퇴계로 100",
  "phone": "054-857-8115",
  "lat": 128.729336,
  "lng": 36.5667805
 },
 {
  "id": 692,
  "name": "한재호내과의원",
  "address": "경북 구미 송정 65 한우상가2층 2호",
  "phone": "054-455-0063",
  "lat": 128.349046,
  "lng": 36.1194334
 },
 {
  "id": 693,
  "name": "혜원성모병원",
  "address": "경북 칠곡 약목 관호 910-12",
  "phone": "054-979-7123",
  "lat": 128.384122,
  "lng": 36.0034086
 },
 {
  "id": 694,
  "name": "황가정의학과의원",
  "address": "경북 구미 형곡 168-1",
  "phone": "054-454-0122",
  "lat": 128.335503,
  "lng": 36.1106457
 },
 {
  "id": 695,
  "name": "감포읍 보건지소",
  "address": "경북 경주시 감포읍 감포로8길 14-8",
  "phone": "054-760-7724",
  "lat": 129.501919,
  "lng": 35.8072959
 },
 {
  "id": 696,
  "name": "강내과의원",
  "address": "경북 영천시 시장로 51-1",
  "phone": "054-333-3525",
  "lat": 128.93595,
  "lng": 35.9637346
 },
 {
  "id": 697,
  "name": "강석암의원",
  "address": "경북 포항시 북구 흥해읍 흥해로 26-4",
  "phone": "054-261-6800",
  "lat": 129.345585,
  "lng": 36.1079483
 },
 {
  "id": 698,
  "name": "경북연합의원",
  "address": "경북 영천시 금호읍 금호로 82-1",
  "phone": "054-331-7955",
  "lat": 128.870817,
  "lng": 35.9306431
 },
 {
  "id": 699,
  "name": "경산밝은안과",
  "address": "경북 경산시 중앙로 81 성창빌딩 5층",
  "phone": "053-813-9944",
  "lat": 128.735798,
  "lng": 35.8238065
 },
 {
  "id": 700,
  "name": "경산시보건소",
  "address": "경북 경산시 남매로 158",
  "phone": "053-810-6363",
  "lat": 128.743037,
  "lng": 35.8249273
 },
 {
  "id": 701,
  "name": "경산정형외과의원",
  "address": "경북 경산시 중앙로 25",
  "phone": "053-813-2119",
  "lat": 128.729974,
  "lng": 35.8210609
 },
 {
  "id": 702,
  "name": "경산제일신경외과의원",
  "address": "경북 경산시 경안로 203 1,2,5,6층",
  "phone": "053-816-1191",
  "lat": 128.736525,
  "lng": 35.8256794
 },
 {
  "id": 703,
  "name": "경주교도소 부속의원",
  "address": "경북 경주시 내남면 포석로 550",
  "phone": "054-740-3175",
  "lat": 129.207412,
  "lng": 35.7894657
 },
 {
  "id": 704,
  "name": "경주동산병원",
  "address": "경북 경주시 봉황로 65",
  "phone": "054-770-9500",
  "lat": 129.209107,
  "lng": 35.8455065
 },
 {
  "id": 705,
  "name": "경주시보건소",
  "address": "경북 경주시 양정로 300",
  "phone": "054-779-8631",
  "lat": 129.224581,
  "lng": 35.8594484
 },
 {
  "id": 706,
  "name": "경주안강보건소",
  "address": "경북 경주시 안강읍 비화원로 47",
  "phone": "054-761-0045",
  "lat": 129.227035,
  "lng": 35.9901237
 },
 {
  "id": 707,
  "name": "경주제일 속내과 의원",
  "address": "경북 경주시 금성로 286-1",
  "phone": "054-749-7223",
  "lat": 129.207259,
  "lng": 35.8431076
 },
 {
  "id": 708,
  "name": "경주연합의원",
  "address": "경북 경주시 황성로 9 2층",
  "phone": "054-772-0119",
  "lat": 129.21323,
  "lng": 35.8644245
 },
 {
  "id": 709,
  "name": "계양연합의원",
  "address": "경북 경산시 장산로 260",
  "phone": "053-801-7775",
  "lat": 128.75275,
  "lng": 35.8172618
 },
 {
  "id": 710,
  "name": "국군대구병원(일반인검사안함)",
  "address": "경북 경산시 하양읍 대경로 407-4",
  "phone": "053-750-5104",
  "lat": 128.790535,
  "lng": 35.8976429
 },
 {
  "id": 711,
  "name": "굿모닝병원",
  "address": "경북 경주시 원화로 397",
  "phone": "054-741-1212",
  "lat": 129.218678,
  "lng": 35.8561516
 },
 {
  "id": 712,
  "name": "굿모닝정형외과연합의원",
  "address": "경북 영천시 금호읍 금호로 78",
  "phone": "054-338-8000",
  "lat": 128.870438,
  "lng": 35.9305499
 },
 {
  "id": 713,
  "name": "권영무의원",
  "address": "경북 포항시 북구 새천년대로 1041 (쌍용상가 2층)",
  "phone": "054-244-8275",
  "lat": 129.370392,
  "lng": 36.0618166
 },
 {
  "id": 714,
  "name": "근원의료재단 경산중앙병원",
  "address": "경북 경산시 경안로 11",
  "phone": "053-715-0250",
  "lat": 128.740263,
  "lng": 35.8088554
 },
 {
  "id": 715,
  "name": "금호의원",
  "address": "경북 영천시 금호읍 교대길 14",
  "phone": "054-336-7119",
  "lat": 128.872089,
  "lng": 35.9324165
 },
 {
  "id": 716,
  "name": "금호중앙의원",
  "address": "경북 영천시 금호읍 금호로 105 1층",
  "phone": "054-337-4596",
  "lat": 128.873131,
  "lng": 35.9315172
 },
 {
  "id": 717,
  "name": "김병훈내과의원",
  "address": "경북 경산시 하양읍 하양로 101",
  "phone": "053-852-7987",
  "lat": 128.818442,
  "lng": 35.9135698
 },
 {
  "id": 718,
  "name": "김인환내과의원",
  "address": "경북 영천시 완산로 57",
  "phone": "054-331-7555",
  "lat": 128.93869,
  "lng": 35.9652042
 },
 {
  "id": 719,
  "name": "김태영정형외과의원",
  "address": "경북 경산시 하양읍 하양로 93",
  "phone": "053-857-5500",
  "lat": 128.817819,
  "lng": 35.9129935
 },
 {
  "id": 720,
  "name": "꿈의의원",
  "address": "경북 포항시 북구 창흥로 13 2층",
  "phone": "054-248-2473",
  "lat": 129.368967,
  "lng": 36.0620159
 },
 {
  "id": 721,
  "name": "녹십자의원",
  "address": "경북 영천시 호국로 69-4",
  "phone": "054-331-7071",
  "lat": 128.94544,
  "lng": 35.9742228
 },
 {
  "id": 722,
  "name": "누가의원",
  "address": "경북 울진군 북면 울진북로 2067",
  "phone": "054-782-4979",
  "lat": 129.372199,
  "lng": 37.101256
 },
 {
  "id": 723,
  "name": "대동정형외과의원",
  "address": "경북 영천시 강변로 51",
  "phone": "054-337-3119",
  "lat": 128.928475,
  "lng": 35.9612778
 },
 {
  "id": 724,
  "name": "동국대학교의과대학 경주병원",
  "address": "경북 경주시 동대로 87",
  "phone": "054-748-9300",
  "lat": 129.19505,
  "lng": 35.8582615
 },
 {
  "id": 725,
  "name": "동산요양병원",
  "address": "경북 포항시 북구 흥해읍 동해대로 1492",
  "phone": "054-262-0770",
  "lat": 129.343846,
  "lng": 36.1054596
 },
 {
  "id": 726,
  "name": "동산정형외과의원",
  "address": "경북 영천시 완산로 70",
  "phone": "054-334-7585",
  "lat": 128.93932,
  "lng": 35.9664735
 },
 {
  "id": 727,
  "name": "등정형외과의원",
  "address": "경북 포항시 남구 해도동 46-2",
  "phone": "054-284-1141",
  "lat": 129.368978,
  "lng": 36.0223725
 },
 {
  "id": 728,
  "name": "마디연합정형외과",
  "address": "경북 청도군 청도읍 청화로 99",
  "phone": "054-373-9263",
  "lat": 128.738268,
  "lng": 35.6473467
 },
 {
  "id": 729,
  "name": "미래연합의원",
  "address": "경북 경산시 장산로 265",
  "phone": "053-817-6119",
  "lat": 128.753384,
  "lng": 35.8174508
 },
 {
  "id": 730,
  "name": "불국사의원",
  "address": "경북 경주시 산업로 3030",
  "phone": "054-746-5576",
  "lat": 129.298827,
  "lng": 35.7765172
 },
 {
  "id": 731,
  "name": "사랑애의원",
  "address": "경북 경산시 경산로44길 11",
  "phone": "053-814-8071",
  "lat": 128.726499,
  "lng": 35.827644
 },
 {
  "id": 732,
  "name": "사회복지법인재단산동복지요양병원",
  "address": "경북 청도군 금천면 금천로 4-1",
  "phone": "054-372-3073",
  "lat": 128.894811,
  "lng": 35.6924397
 },
 {
  "id": 733,
  "name": "삼성의원",
  "address": "경북 경주시 화랑로 74",
  "phone": "054-741-0003",
  "lat": 129.208835,
  "lng": 35.8444483
 },
 {
  "id": 734,
  "name": "새우리들연합의원",
  "address": "경북 경주시 안강읍 구부랑4길 6-9 2,3층",
  "phone": "054-762-3693",
  "lat": 129.196356,
  "lng": 36.0028891
 },
 {
  "id": 735,
  "name": "신명준외과의원",
  "address": "경상북도 포항시 남구 연일읍 생지리 255-2 -1",
  "phone": "054-285-8001",
  "lat": 129.346195,
  "lng": 35.9976376
 },
 {
  "id": 736,
  "name": "신세계연합의원",
  "address": "경북 경산시 진량읍 봉황길 24",
  "phone": "053-856-8275",
  "lat": 128.82073,
  "lng": 35.8843124
 },
 {
  "id": 737,
  "name": "양남정형외과",
  "address": "경북 경주시 양남면 양남로 355-0",
  "phone": "054-743-8575",
  "lat": 129.461708,
  "lng": 35.6764539
 },
 {
  "id": 738,
  "name": "에스포항병원",
  "address": "경북 포항시 남구 희망대로 352",
  "phone": "054-289-9211",
  "lat": 129.331646,
  "lng": 36.0352224
 },
 {
  "id": 739,
  "name": "여성아이병원",
  "address": "경북 포항시 북구 우창로 80-1",
  "phone": "054-255-5000",
  "lat": 129.362266,
  "lng": 36.0605805
 },
 {
  "id": 740,
  "name": "연합열린외과의원",
  "address": "경북 경주시 임해로 115 1,4,5층",
  "phone": "054-745-0046",
  "lat": 129.22895,
  "lng": 35.8419414
 },
 {
  "id": 741,
  "name": "영남대학교의대부속영천병원",
  "address": "경북 영천시 오수1길 10",
  "phone": "054-338-9000",
  "lat": 128.913664,
  "lng": 35.957469
 },
 {
  "id": 742,
  "name": "영남외과연합의원",
  "address": "경북 경산시 대학로 309 3,4층",
  "phone": "053-817-0075",
  "lat": 128.754993,
  "lng": 35.8382432
 },
 {
  "id": 743,
  "name": "영남정형외과",
  "address": "경북 포항시 북구 용당로 11",
  "phone": "054-247-2272",
  "lat": 129.356253,
  "lng": 36.0297319
 },
 {
  "id": 744,
  "name": "영남제일외과의원",
  "address": "경북 경산시 대학로 333 2,3층",
  "phone": "053-817-2188",
  "lat": 128.757261,
  "lng": 35.839724
 },
 {
  "id": 745,
  "name": "영덕군보건소",
  "address": "경북 영덕군 영덕읍 경동로 8367",
  "phone": "054-730-6836",
  "lat": 129.367724,
  "lng": 36.4182884
 },
 {
  "id": 746,
  "name": "영덕아산요양병원",
  "address": "경북 영덕군 영해면 영덕로 1621",
  "phone": "054-730-0155",
  "lat": 129.402248,
  "lng": 36.5249528
 },
 {
  "id": 747,
  "name": "영천시보건소",
  "address": "경북 영천시 옛군청1길 31",
  "phone": "054-339-7894",
  "lat": 128.932486,
  "lng": 35.968521
 },
 {
  "id": 748,
  "name": "올바른정형외과의원",
  "address": "경상북도 경산시 진량읍 다문로 58",
  "phone": "053-856-0365",
  "lat": 128.817539,
  "lng": 35.8745297
 },
 {
  "id": 749,
  "name": "우리연합신경,정형외과의원",
  "address": "경북 포항시 남구 오천읍 정몽주로 560",
  "phone": "054-292-9200",
  "lat": 129.416261,
  "lng": 35.967938
 },
 {
  "id": 750,
  "name": "울릉군 보건의료원",
  "address": "경북 울릉군 울릉읍 울릉순환로 396-18",
  "phone": "054-790-6871",
  "lat": 130.899751,
  "lng": 37.4860276
 },
 {
  "id": 751,
  "name": "울진군 보건소",
  "address": "경북 울진군 울진읍 읍내8길 61-8",
  "phone": "054-783-1250",
  "lat": 129.4046,
  "lng": 36.9961588
 },
 {
  "id": 752,
  "name": "울진군의료원",
  "address": "경북 울진군 울진읍 현내항길 71",
  "phone": "054-785-7000",
  "lat": 129.410027,
  "lng": 36.9926796
 },
 {
  "id": 753,
  "name": "오차드 요양병원",
  "address": "경북 울진군 후포면 후포삼율로 157",
  "phone": "054-787-1212",
  "lat": 129.442036,
  "lng": 36.6839281
 },
 {
  "id": 754,
  "name": "의료법인 세명의료재단 세명병원",
  "address": "경북 경산시 경안로 208",
  "phone": "053-819-8800",
  "lat": 128.737264,
  "lng": 35.8265788
 },
 {
  "id": 755,
  "name": "이동길내과의원",
  "address": "경북 영천시 시장로 59 2층",
  "phone": "054-331-3175",
  "lat": 128.936803,
  "lng": 35.9637028
 },
 {
  "id": 756,
  "name": "이서의원",
  "address": "경북 청도군 이서면 학산1길 45",
  "phone": "054-373-7924",
  "lat": 128.667359,
  "lng": 35.6623706
 },
 {
  "id": 757,
  "name": "이운우의원",
  "address": "경북 경주시 황성로 15",
  "phone": "054-774-5505",
  "lat": 129.213586,
  "lng": 35.8648865
 },
 {
  "id": 758,
  "name": "자인고려의원",
  "address": "경북 경산시 자인면 일연로 74",
  "phone": "053-856-0874",
  "lat": 128.822908,
  "lng": 35.8198503
 },
 {
  "id": 759,
  "name": "장유석외과의원",
  "address": "경북 경산시 하양읍 하양로 108-1",
  "phone": "053-851-7007",
  "lat": 128.819342,
  "lng": 35.9137003
 },
 {
  "id": 760,
  "name": "정광용정형외과의원",
  "address": "경북 포항시 남구 연일읍 연일중앙로 54",
  "phone": "054-285-1001",
  "lat": 129.349852,
  "lng": 35.9968092
 },
 {
  "id": 761,
  "name": "제일연합신경외과",
  "address": "경북 경산시 진량읍 공단로 496 1,3,4층",
  "phone": "053-852-6699",
  "lat": 128.819349,
  "lng": 35.8757458
 },
 {
  "id": 762,
  "name": "제일정형외과의원",
  "address": "경북 경산시 하양읍 하양로 132",
  "phone": "053-853-7575",
  "lat": 128.821463,
  "lng": 35.9149117
 },
 {
  "id": 763,
  "name": "좋은 선린병원",
  "address": "경북 포항시 북구 대신로 43",
  "phone": "054-245-5000",
  "lat": 129.367107,
  "lng": 36.0480694
 },
 {
  "id": 764,
  "name": "청도군보건소",
  "address": "경북 청도군 화양읍 청화로 79-11",
  "phone": "054-370-2649",
  "lat": 128.737291,
  "lng": 35.6486314
 },
 {
  "id": 765,
  "name": "청십자의원",
  "address": "경북 경산시 중앙로 76 1층",
  "phone": "053-815-7077",
  "lat": 128.735245,
  "lng": 35.8227602
 },
 {
  "id": 766,
  "name": "최길선외과의원",
  "address": "경북 경주시 양정로 313",
  "phone": "054-777-7301",
  "lat": 129.223986,
  "lng": 35.8607659
 },
 {
  "id": 767,
  "name": "충효의원",
  "address": "경북 경주시 충효5길 9-7",
  "phone": "054-742-4079",
  "lat": 129.178715,
  "lng": 35.8445745
 },
 {
  "id": 768,
  "name": "파티마의원",
  "address": "경북 경산시 하양읍 하양로 112",
  "phone": "053-852-6666",
  "lat": 128.819626,
  "lng": 35.9139844
 },
 {
  "id": 769,
  "name": "포항 성모병원",
  "address": "경북 포항시 남구 대잠동길 17",
  "phone": "054-272-0151",
  "lat": 129.339724,
  "lng": 36.0165407
 },
 {
  "id": 770,
  "name": "포항남구보건소",
  "address": "경북 포항시 남구 동해안로 6119",
  "phone": "054-270-4004",
  "lat": 129.396619,
  "lng": 35.9924063
 },
 {
  "id": 771,
  "name": "포항북구보건소",
  "address": "경북 포항시 북구 삼흥로 98",
  "phone": "054-270-4114",
  "lat": 129.380024,
  "lng": 36.0706625
 },
 {
  "id": 772,
  "name": "포항여성병원",
  "address": "포항시 북구 포스코대로 269",
  "phone": "054-274-7775",
  "lat": 129.354307,
  "lng": 36.0217153
 },
 {
  "id": 773,
  "name": "포항의원(경찰공제회)",
  "address": "경북 포항시 남구 오천읍 냉천로 656",
  "phone": "054-292-6788",
  "lat": 129.393141,
  "lng": 35.94257
 },
 {
  "id": 774,
  "name": "하양내과의원",
  "address": "경북 경산시 하양읍 하양로 120-1 2층",
  "phone": "053-854-0080",
  "lat": 128.820388,
  "lng": 35.9144053
 },
 {
  "id": 775,
  "name": "하양삼성병원",
  "address": "경북 경산시 하양읍 대경로 795",
  "phone": "053-857-9114",
  "lat": 128.826022,
  "lng": 35.9151759
 },
 {
  "id": 776,
  "name": "하양중앙내과",
  "address": "경북 경산시 하양읍 하양로 125",
  "phone": "053-856-4567",
  "lat": 128.820721,
  "lng": 35.9149139
 },
 {
  "id": 777,
  "name": "한빛연합의원",
  "address": "경북 포항시 남구 동해면 일월로123번길 4-2",
  "phone": "054-284-5818",
  "lat": 129.4469,
  "lng": 35.9881838
 },
 {
  "id": 778,
  "name": "한사랑의원",
  "address": "경북 포항시 남구 송도로 42",
  "phone": "054-248-1002",
  "lat": 129.375814,
  "lng": 36.0332382
 },
 {
  "id": 779,
  "name": "한성의원",
  "address": "경북 경주시 화랑로 94",
  "phone": "054-772-2703",
  "lat": 129.210968,
  "lng": 35.844373
 },
 {
  "id": 780,
  "name": "한일의원",
  "address": "경북 경주시 건천읍 내서로 1115 2층",
  "phone": "054-751-6051",
  "lat": 129.103557,
  "lng": 35.8494726
 },
 {
  "id": 781,
  "name": "해군포항병원(일반인검사안함)",
  "address": "경북 포항시 남구 오천읍 충무로 70",
  "phone": "054-290-2491",
  "lat": 129.418289,
  "lng": 35.9751951
 },
 {
  "id": 782,
  "name": "현대연합의원",
  "address": "경북 영천시 신녕면 장수로 1673",
  "phone": "054-336-2277",
  "lat": 128.78807,
  "lng": 36.0409899
 },
 {
  "id": 783,
  "name": "현대의원",
  "address": "경북 청도군 청도읍 청화로 193-1",
  "phone": "054-373-2616",
  "lat": 128.745993,
  "lng": 35.6421165
 },
 {
  "id": 784,
  "name": "황내과의원",
  "address": "경북 경주시 원화로 278",
  "phone": "054-746-7701",
  "lat": 129.217495,
  "lng": 35.8454782
 },
 {
  "id": 785,
  "name": "경남의원",
  "address": "창원시 마산합포구 진동면 진북산업로90-1 마산시험장 내",
  "phone": "055-271-4535",
  "lat": 128.487512,
  "lng": 35.1251837
 },
 {
  "id": 786,
  "name": "갑을장유병원",
  "address": "경남 김해시 장유로 167-13",
  "phone": "055-310-6126",
  "lat": 128.805626,
  "lng": 35.2086509
 },
 {
  "id": 787,
  "name": "강병원",
  "address": "고성군 고성읍 중앙로 49",
  "phone": "055-673-0101",
  "lat": 128.325209,
  "lng": 34.9741799
 },
 {
  "id": 788,
  "name": "거제백병원",
  "address": "거제시 계룡로5길 14",
  "phone": "055-635-6832",
  "lat": 128.626476,
  "lng": 34.8732391
 },
 {
  "id": 789,
  "name": "거제시 보건소",
  "address": "거제시 수양로 506",
  "phone": "055-635-2858",
  "lat": 128.638191,
  "lng": 34.8921077
 },
 {
  "id": 790,
  "name": "거제중앙병원",
  "address": "경상남도 거제시 고현로 89 선진의원",
  "phone": "055-635-3211",
  "lat": 128.622407,
  "lng": 34.8865421
 },
 {
  "id": 791,
  "name": "거창군보건소",
  "address": "거창군 거창읍 강남로1길 170",
  "phone": "055-944-3735",
  "lat": 127.910034,
  "lng": 35.6825624
 },
 {
  "id": 792,
  "name": "거창병원",
  "address": "거창군 거창읍 시장길 20",
  "phone": "055-942-9811",
  "lat": 127.911757,
  "lng": 35.6854694
 },
 {
  "id": 793,
  "name": "거창적십자병원",
  "address": "거창군 거창읍 중앙로 91",
  "phone": "055-944-3251",
  "lat": 127.908866,
  "lng": 35.6866899
 },
 {
  "id": 794,
  "name": "고려정형외과",
  "address": "거창군 거창읍 강남로 194",
  "phone": "055-943-9811",
  "lat": 127.918305,
  "lng": 35.6852395
 },
 {
  "id": 795,
  "name": "고성군보건소",
  "address": "고성군 고성읍 남포로79번길 103-3",
  "phone": "055-670-4001",
  "lat": 128.314317,
  "lng": 34.9696024
 },
 {
  "id": 796,
  "name": "근로복지공단 창원병원",
  "address": "창원시 의창구 창원대로 721",
  "phone": "055-282-5111",
  "lat": 128.671717,
  "lng": 35.2192875
 },
 {
  "id": 797,
  "name": "금강병원",
  "address": "경남 김해시 가락로 20",
  "phone": "055-333-0005",
  "lat": 128.883097,
  "lng": 35.2284058
 },
 {
  "id": 798,
  "name": "김해복음병원",
  "address": "김해시 활천로 33(삼정동)",
  "phone": "055-330-8888",
  "lat": 128.893209,
  "lng": 35.2306362
 },
 {
  "id": 799,
  "name": "김해삼승병원",
  "address": "경남 김해시 김해대로 2333 (부원동)",
  "phone": "055-310-7700",
  "lat": 128.882089,
  "lng": 35.226574
 },
 {
  "id": 800,
  "name": "김해시 보건소",
  "address": "김해시 분성로 227(외동)",
  "phone": "1577-9400",
  "lat": 128.871045,
  "lng": 35.2320441
 },
 {
  "id": 801,
  "name": "김해중앙병원",
  "address": "경남 김해시 분성로 94-8 (외동)",
  "phone": "055-330-6023",
  "lat": 128.856878,
  "lng": 35.2306941
 },
 {
  "id": 802,
  "name": "남해군보건소",
  "address": "남해군 남해읍 선소로 6",
  "phone": "055-860-3551",
  "lat": 127.898783,
  "lng": 34.8447792
 },
 {
  "id": 803,
  "name": "내서읍보건소",
  "address": "창원시 마산회원구 내서읍 중리상곡로 69",
  "phone": "055-225-6061",
  "lat": 128.507476,
  "lng": 35.2465061
 },
 {
  "id": 804,
  "name": "대우병원",
  "address": "경남 거제시 두모길 16",
  "phone": "055-680-8715",
  "lat": 128.721872,
  "lng": 34.8718272
 },
 {
  "id": 805,
  "name": "동마산보건지소",
  "address": "창원시 마산회원구 구암남14길 33",
  "phone": "055-225-6055",
  "lat": 128.600816,
  "lng": 35.2506075
 },
 {
  "id": 806,
  "name": "동부도시시보건지소",
  "address": "김해시 신어산길 46",
  "phone": "055-330-4694",
  "lat": 128.907134,
  "lng": 35.2577684
 },
 {
  "id": 807,
  "name": "마산보건소",
  "address": "경남 창원시 마산합포구 월영동북로 15 (해운동)",
  "phone": "055-225-6026",
  "lat": 128.563157,
  "lng": 35.1825337
 },
 {
  "id": 808,
  "name": "마산의료원",
  "address": "창원시 마산합포구 315대로 231",
  "phone": "055-249-1034",
  "lat": 128.565716,
  "lng": 35.1991735
 },
 {
  "id": 809,
  "name": "마산의원",
  "address": "창원시 마산회원구 자유무역2길 38",
  "phone": "055-295-2463",
  "lat": 128.591908,
  "lng": 35.211864
 },
 {
  "id": 810,
  "name": "맑은샘병원",
  "address": "거제시 연초면 거제대로 4477",
  "phone": "055-731-1230",
  "lat": 128.643629,
  "lng": 34.8977123
 },
 {
  "id": 811,
  "name": "밀양시보건소",
  "address": "경남 밀양시 삼문중앙로 41 밀양시보건소",
  "phone": "055-359-5563",
  "lat": 128.756134,
  "lng": 35.4856277
 },
 {
  "id": 812,
  "name": "밀양정형외과",
  "address": "밀양시 중앙로 451(내이동)",
  "phone": "055-356-5500",
  "lat": 128.745521,
  "lng": 35.499254
 },
 {
  "id": 813,
  "name": "반도병원",
  "address": "진주시 남강로 701(장대동)",
  "phone": "055-749-0250",
  "lat": 128.088144,
  "lng": 35.1917568
 },
 {
  "id": 814,
  "name": "베데스다병원",
  "address": "양산시 신기로 28",
  "phone": "055-384-9901",
  "lat": 129.043393,
  "lng": 35.3532015
 },
 {
  "id": 815,
  "name": "부성병원",
  "address": "김해시 장유면 번화1로36",
  "phone": "055-339-8811",
  "lat": 128.800894,
  "lng": 35.1907695
 },
 {
  "id": 816,
  "name": "사천시보건서",
  "address": "사천시 용현면 시청로 77",
  "phone": "055-831-3533",
  "lat": 128.064562,
  "lng": 35.0034842
 },
 {
  "id": 817,
  "name": "사천읍 보건지소",
  "address": "사천시 사천읍 무산로 21",
  "phone": "055-831-3650",
  "lat": 128.088141,
  "lng": 35.0875123
 },
 {
  "id": 818,
  "name": "산청군보건의료원",
  "address": "산청군 산청읍 중앙로 67",
  "phone": "055-970-7500",
  "lat": 127.88197,
  "lng": 35.4146909
 },
 {
  "id": 819,
  "name": "삼가면보건지소",
  "address": "경남 합천군 삼가면 삼가로 299",
  "phone": "055-930-3783",
  "lat": 128.120735,
  "lng": 35.4092532
 },
 {
  "id": 820,
  "name": "삼성연합의원",
  "address": "사천시 곤양면 서삼로 5",
  "phone": "055-855-0018",
  "lat": 127.96156,
  "lng": 35.0569172
 },
 {
  "id": 821,
  "name": "삼성창원병원",
  "address": "경남 창원시 마산회원구 팔용로 158 (합성동)",
  "phone": "055-290-6272",
  "lat": 128.592244,
  "lng": 35.2426185
 },
 {
  "id": 822,
  "name": "삼성합천병원",
  "address": "경남 합천군 합천읍 대야로 876",
  "phone": "055-933-1006",
  "lat": 128.163376,
  "lng": 35.566469
 },
 {
  "id": 823,
  "name": "삼천포보건센터",
  "address": "사천시 동금로 33(동금동)",
  "phone": "055-831-3660",
  "lat": 128.079013,
  "lng": 34.9309441
 },
 {
  "id": 824,
  "name": "삼천포제일병원",
  "address": "경남 사천시 중앙로 136 (벌리동)",
  "phone": "055-833-4400",
  "lat": 128.079526,
  "lng": 34.9375373
 },
 {
  "id": 825,
  "name": "서경병원",
  "address": "경남 거창군 거창읍 강남로 16-28",
  "phone": "055-945-0091",
  "lat": 127.897671,
  "lng": 35.6813754
 },
 {
  "id": 826,
  "name": "서병원",
  "address": "경남 창원시 진해구 용원로 15 (용원동)",
  "phone": "055-540-0900",
  "lat": 128.811046,
  "lng": 35.1004708
 },
 {
  "id": 827,
  "name": "서울고려의원",
  "address": "경남 창녕군 부곡면 원앙로 211",
  "phone": "055-521-4045",
  "lat": 128.591389,
  "lng": 35.4368858
 },
 {
  "id": 828,
  "name": "양산시보건소",
  "address": "경남 양산시 삽량로 169 양산시보건소",
  "phone": "055-388-4000",
  "lat": 129.024949,
  "lng": 35.3356513
 },
 {
  "id": 829,
  "name": "온누리내과",
  "address": "창원시 의창구 창이대로15번길24 서주빌딩4층",
  "phone": "055-265-3927",
  "lat": 128.642684,
  "lng": 35.2358165
 },
 {
  "id": 830,
  "name": "웅상보건지소",
  "address": "경남 양산시 삼호로 164",
  "phone": "055-365-1008",
  "lat": 129.17239,
  "lng": 35.4130656
 },
 {
  "id": 831,
  "name": "의령군보건소",
  "address": "경남 의령군 의령읍 의병로8길 16",
  "phone": "055-570-4005",
  "lat": 128.255099,
  "lng": 35.3176998
 },
 {
  "id": 832,
  "name": "의령부림통합보건지소",
  "address": "경남 의령군 부림면 신번로10길 21-5",
  "phone": "055-570-4050",
  "lat": 128.326079,
  "lng": 35.4678284
 },
 {
  "id": 833,
  "name": "장유건강지원센터",
  "address": "김해시 능동로 149",
  "phone": "055-330-7971",
  "lat": 128.807362,
  "lng": 35.2022896
 },
 {
  "id": 834,
  "name": "제민의원",
  "address": "경남 창원시 성산구 마디미로3번길 17(상남동)",
  "phone": "055-282-7002",
  "lat": 128.687377,
  "lng": 35.2229997
 },
 {
  "id": 835,
  "name": "진부복음병원",
  "address": "경남 진주시 진양호로 370",
  "phone": "055-743-2580",
  "lat": 128.069452,
  "lng": 35.1854969
 },
 {
  "id": 836,
  "name": "진영병원",
  "address": "경남 김해시 진영읍 김해대로 334번길 9",
  "phone": "055-340-3700",
  "lat": 128.727026,
  "lng": 35.3060092
 },
 {
  "id": 837,
  "name": "진영읍보건소",
  "address": "김해시 진영읍 김해대로 365번길 6-24",
  "phone": "055-330-6871",
  "lat": 128.731488,
  "lng": 35.3074865
 },
 {
  "id": 838,
  "name": "진주고려병원",
  "address": "경남 진주시 동진로 2",
  "phone": "055-751-2500",
  "lat": 128.09157,
  "lng": 35.1786212
 },
 {
  "id": 839,
  "name": "진주시보건소",
  "address": "경남 진주시 진양호로 476 (남성동)",
  "phone": "055-741-4000",
  "lat": 128.077789,
  "lng": 35.1907768
 },
 {
  "id": 840,
  "name": "진해보건소",
  "address": "경남 창원시 진해구 진해대로 1101",
  "phone": "055-225-6101",
  "lat": 128.710702,
  "lng": 35.1327222
 },
 {
  "id": 841,
  "name": "진해서부보건지소",
  "address": "경남 창원시 진해구 중원동로 62 (중앙동)",
  "phone": "055-225-6159",
  "lat": 128.661926,
  "lng": 35.149929
 },
 {
  "id": 842,
  "name": "진해연세병원",
  "address": "경남 창원시 진해구 해원로32번길 13 (이동)",
  "phone": "055-548-7711",
  "lat": 128.698345,
  "lng": 35.1547325
 },
 {
  "id": 843,
  "name": "창녕군 보건소",
  "address": "경남 창녕군 창녕읍 우포2로 1189-35",
  "phone": "055-530-6201",
  "lat": 128.490431,
  "lng": 35.5437223
 },
 {
  "id": 844,
  "name": "창녕서울병원",
  "address": "경남 창녕군 창녕읍 창녕대로 122",
  "phone": "055-532-1975",
  "lat": 128.497861,
  "lng": 35.5346904
 },
 {
  "id": 845,
  "name": "창원중심보건소",
  "address": "경남 창원시 의창구 중앙대로 162번길 9",
  "phone": "055-225-5781",
  "lat": 128.685545,
  "lng": 35.2278737
 },
 {
  "id": 846,
  "name": "창원파티마병원",
  "address": "경남 창원시 의창구 창이대로 45",
  "phone": "055-270-1000",
  "lat": 128.644492,
  "lng": 35.237261
 },
 {
  "id": 847,
  "name": "창원한마음병원",
  "address": "경남 창원시 성산구 원이대로682번길 21 (상남동)",
  "phone": "055-267-2000",
  "lat": 128.686875,
  "lng": 35.221024
 },
 {
  "id": 848,
  "name": "청아병원",
  "address": "경남 창원시 마산회원구 내서읍 광려천서로 67",
  "phone": "055-230-1582",
  "lat": 128.509456,
  "lng": 35.2478152
 },
 {
  "id": 849,
  "name": "청해의원",
  "address": "경남 하동군 진교면 진교중앙길 13",
  "phone": "055-882-8540",
  "lat": 127.903486,
  "lng": 35.0288809
 },
 {
  "id": 850,
  "name": "초계면보건지소",
  "address": "경남 합천군 초계면 초계2길 19",
  "phone": "055-930-3776",
  "lat": 128.267953,
  "lng": 35.5574218
 },
 {
  "id": 851,
  "name": "최창수외과의원",
  "address": "경남 거창군 거창읍 거열로 202",
  "phone": "055-944-1230",
  "lat": 127.915562,
  "lng": 35.6907579
 },
 {
  "id": 852,
  "name": "통영서울병원",
  "address": "통영시 남해안대로 857",
  "phone": "055-644-1777",
  "lat": 128.415736,
  "lng": 34.869925
 },
 {
  "id": 853,
  "name": "통영시 보건소",
  "address": "경남 통영시 안개4길 108",
  "phone": "055-645-2400",
  "lat": 128.432032,
  "lng": 34.8599011
 },
 {
  "id": 854,
  "name": "통영적십자병원",
  "address": "경남 통영시 중앙로 97 (서호동)",
  "phone": "055-644-8901",
  "lat": 128.419922,
  "lng": 34.8423955
 },
 {
  "id": 855,
  "name": "파티마안과의원",
  "address": "경남 창원시 마산합포구 합포로 26-1",
  "phone": "055-242-3700",
  "lat": 128.575209,
  "lng": 35.2029798
 },
 {
  "id": 856,
  "name": "하동군보건소",
  "address": "경남 하동군 하동읍 군청로 31",
  "phone": "055-882-4000",
  "lat": 127.7531,
  "lng": 35.0668697
 },
 {
  "id": 857,
  "name": "한국건강증진의원",
  "address": "창원시 마산회원구 삼호로 107(양덕동)",
  "phone": "055-299-2248",
  "lat": 128.579873,
  "lng": 35.2243954
 },
 {
  "id": 858,
  "name": "한마음연합의원",
  "address": "경남 거창군 거창읍 중앙로1길 1",
  "phone": "055-943-8271",
  "lat": 127.913182,
  "lng": 35.6874143
 },
 {
  "id": 859,
  "name": "한서병원",
  "address": "경남 창원시 성산구 용지로 133번길 3 (중앙동)",
  "phone": "055-269-7613",
  "lat": 128.679461,
  "lng": 35.2273905
 },
 {
  "id": 860,
  "name": "한일병원",
  "address": "경남 진주시 대신로 120",
  "phone": "055-759-7777",
  "lat": 128.118514,
  "lng": 35.1710121
 },
 {
  "id": 861,
  "name": "함안군 보건소",
  "address": "경남 함안군 가야읍 중앙남4길 10",
  "phone": "055-580-3141",
  "lat": 128.410313,
  "lng": 35.2756061
 },
 {
  "id": 862,
  "name": "함양군 보건소",
  "address": "경남 함양군 함양읍 한들로 141",
  "phone": "055-960-5331",
  "lat": 127.731698,
  "lng": 35.5195389
 },
 {
  "id": 863,
  "name": "함양성심병원",
  "address": "경남 함양군 함양읍 고운로 70",
  "phone": "055-963-4322",
  "lat": 127.729303,
  "lng": 35.5204547
 },
 {
  "id": 864,
  "name": "합천군 보건소",
  "address": "경남 합천군 합천읍 남정길 23",
  "phone": "055-930-3692",
  "lat": 128.155765,
  "lng": 35.5633698
 },
 {
  "id": 865,
  "name": "합천군 북부보건지소",
  "address": "경남 합천군 야로면 향교길 20",
  "phone": "055-930-3774",
  "lat": 128.167838,
  "lng": 35.705133
 },
 {
  "id": 866,
  "name": "합천병원",
  "address": "경남 합천군 합천읍 대야로 890",
  "phone": "055-932-4900",
  "lat": 128.16355,
  "lng": 35.5677921
 },
 {
  "id": 867,
  "name": "합천파티마의원",
  "address": "경남 합천군 합천읍 옥산로 69",
  "phone": "055-933-2680",
  "lat": 128.162908,
  "lng": 35.5684292
 },
 {
  "id": 868,
  "name": "현대병원",
  "address": "경남 김해시 구산로 33 (구산동)",
  "phone": "055-339-2224",
  "lat": 128.872304,
  "lng": 35.249093
 },
 {
  "id": 869,
  "name": "홍인의원",
  "address": "경남 함양군 함양읍 고운로 77-4",
  "phone": "055-963-2050",
  "lat": 127.729729,
  "lng": 35.5212362
 },
 {
  "id": 870,
  "name": "(사)경찰공제회전주의원",
  "address": "전북 전주시 덕진구 팔복로359 전북운전면허시험장 1층",
  "phone": "063-212-2720",
  "lat": 127.070547,
  "lng": 35.8615912
 },
 {
  "id": 871,
  "name": "강정성내과의원",
  "address": "전북 익산시 무왕로길 13",
  "phone": "063-834-2900",
  "lat": 126.976519,
  "lng": 35.9595465
 },
 {
  "id": 872,
  "name": "고창군보건소",
  "address": "전북 고창군 고창읍 전봉준로 90",
  "phone": "063-560-8711",
  "lat": 126.683266,
  "lng": 35.4436016
 },
 {
  "id": 873,
  "name": "구세의원",
  "address": "전북 진안군 진안읍 우화산길 10",
  "phone": "063-433-2620",
  "lat": 127.426107,
  "lng": 35.7906985
 },
 {
  "id": 874,
  "name": "군산시보건소",
  "address": "전북 군산시 수송동로 58",
  "phone": "063-463-4000",
  "lat": 126.720211,
  "lng": 35.9646901
 },
 {
  "id": 875,
  "name": "군산정형외과의원",
  "address": "전북 군산시 문화로 36 해뜨는마을주공4차아파트",
  "phone": "063-467-8833",
  "lat": 126.70961,
  "lng": 35.968495
 },
 {
  "id": 876,
  "name": "그린외과의원",
  "address": "전북 익산시 고봉로 281",
  "phone": "063-843-2233",
  "lat": 126.970345,
  "lng": 35.9571297
 },
 {
  "id": 877,
  "name": "김성배정형외과",
  "address": "전북 군산시 백토로 345-3",
  "phone": "063-462-2660",
  "lat": 126.705098,
  "lng": 35.9713679
 },
 {
  "id": 878,
  "name": "김제시보건소",
  "address": "전북 김제시 성산길 138",
  "phone": "063-547-4000",
  "lat": 126.883318,
  "lng": 35.8007725
 },
 {
  "id": 879,
  "name": "김제우석병원",
  "address": "전북 김제시 서암4길 45",
  "phone": "063-540-5114",
  "lat": 126.880199,
  "lng": 35.8072945
 },
 {
  "id": 880,
  "name": "김제중앙병원",
  "address": "전북 김제 동서로77",
  "phone": "063-540-9900",
  "lat": 126.877462,
  "lng": 35.7956926
 },
 {
  "id": 881,
  "name": "김홍기가정의학과",
  "address": "전북 진안군 진안읍 중앙로 88",
  "phone": "063-433-2341",
  "lat": 127.427002,
  "lng": 35.7924077
 },
 {
  "id": 882,
  "name": "남원노인요양병원",
  "address": "전북 남원시 산성길 51-15",
  "phone": "063-630-7777",
  "lat": 127.372891,
  "lng": 35.4207906
 },
 {
  "id": 883,
  "name": "남원병원",
  "address": "전북 남원시 충정로 115",
  "phone": "063-631-0119",
  "lat": 127.386598,
  "lng": 35.4159707
 },
 {
  "id": 884,
  "name": "남원시 보건소",
  "address": "전북 남원시 요천로 1285",
  "phone": "063-625-4000",
  "lat": 127.3639,
  "lng": 35.3973748
 },
 {
  "id": 885,
  "name": "누가병원",
  "address": "전북 군산 백릉로 70",
  "phone": "063-450-0900",
  "lat": 126.733667,
  "lng": 35.975094
 },
 {
  "id": 886,
  "name": "다사랑병원",
  "address": "전북 전주시 완산구 백제대로 74",
  "phone": "063-228-5540",
  "lat": 127.127824,
  "lng": 35.8008723
 },
 {
  "id": 887,
  "name": "대동의원",
  "address": "전북 순창군 순창읍 순창5길 15",
  "phone": "063-653-2828",
  "lat": 127.1407,
  "lng": 35.3731241
 },
 {
  "id": 888,
  "name": "동군산병원",
  "address": "전북 군산시 조촌로 149",
  "phone": "063-440-0300",
  "lat": 126.737207,
  "lng": 35.9775261
 },
 {
  "id": 889,
  "name": "동산병원",
  "address": "전북 익산시 중앙로 141",
  "phone": "063-856-5522",
  "lat": 126.962031,
  "lng": 35.9368765
 },
 {
  "id": 890,
  "name": "동아의원",
  "address": "전북 익산시 익산대로 168",
  "phone": "063-841-6006",
  "lat": 126.947843,
  "lng": 35.9410978
 },
 {
  "id": 891,
  "name": "무주보건의료원",
  "address": "전북 무주군 무주읍 한풍루로 413",
  "phone": "063-320-8322",
  "lat": 127.671525,
  "lng": 36.0056047
 },
 {
  "id": 892,
  "name": "박천수정형외과의원",
  "address": "전주 전주시 완산구 온고을로 66",
  "phone": "063-250-0700",
  "lat": 127.115547,
  "lng": 35.834222
 },
 {
  "id": 893,
  "name": "백제의원",
  "address": "전북 익산시 금마면 미륵사지로1길 35",
  "phone": "063-836-9210",
  "lat": 127.053814,
  "lng": 35.9898911
 },
 {
  "id": 894,
  "name": "부안드림병원",
  "address": "전북 부안군 부안읍 번영로 189",
  "phone": "063-580-6700",
  "lat": 126.74104,
  "lng": 35.7280602
 },
 {
  "id": 895,
  "name": "부안성모병원",
  "address": "전북 부안군 부안읍 오정2길 24",
  "phone": "063-581-5100",
  "lat": 126.734342,
  "lng": 35.7247378
 },
 {
  "id": 896,
  "name": "삼성가정의학과의원",
  "address": "전북 전주시 완산구 난전들로 266",
  "phone": "063-285-6001",
  "lat": 127.117124,
  "lng": 35.7920958
 },
 {
  "id": 897,
  "name": "서울의원",
  "address": "전북 군산시 동아로 148 서군산농협",
  "phone": "063-466-7061",
  "lat": 126.684588,
  "lng": 35.9683324
 },
 {
  "id": 898,
  "name": "서울정형외과의원",
  "address": "전북 김제시 중앙로 129",
  "phone": "063-544-0314",
  "lat": 126.889985,
  "lng": 35.8034106
 },
 {
  "id": 899,
  "name": "서해의원",
  "address": "전북 군산시 대야면 동만자길 1",
  "phone": "063-451-4700",
  "lat": 126.810319,
  "lng": 35.94559
 },
 {
  "id": 900,
  "name": "성모의원",
  "address": "전북 익산시 함열읍 함열중앙로 13",
  "phone": "063-861-0111",
  "lat": 126.95914,
  "lng": 36.0792964
 },
 {
  "id": 901,
  "name": "성심의원",
  "address": "전북 완주군 봉동읍 하월길 45 성심빌딩 2층",
  "phone": "063-261-2002",
  "lat": 127.16786,
  "lng": 35.9381555
 },
 {
  "id": 902,
  "name": "성심의원",
  "address": "전북 정읍시 중앙로 41 보원치과",
  "phone": "063-533-2422",
  "lat": 126.84651,
  "lng": 35.5723929
 },
 {
  "id": 903,
  "name": "순창보건의료원",
  "address": "전북 순창군 순창읍 교성로 135",
  "phone": "063-650-5373",
  "lat": 127.143759,
  "lng": 35.3670276
 },
 {
  "id": 904,
  "name": "시민의원",
  "address": "전북 군산시 대학로 46 군산연합방사선과",
  "phone": "063-446-4569",
  "lat": 126.710621,
  "lng": 35.9860534
 },
 {
  "id": 905,
  "name": "안종욱안과의원",
  "address": "전북 익산시 중앙로 4 대한통운빌딩",
  "phone": "063-858-0342",
  "lat": 126.947356,
  "lng": 35.9396827
 },
 {
  "id": 906,
  "name": "여산중앙의원",
  "address": "전북 익산시 여산면 가람로 389",
  "phone": "063-836-9673",
  "lat": 127.083894,
  "lng": 36.0592865
 },
 {
  "id": 907,
  "name": "연합정형외과의원",
  "address": "전북 김제시 동서로 249",
  "phone": "063-548-0808",
  "lat": 126.894299,
  "lng": 35.8037029
 },
 {
  "id": 908,
  "name": "우리가정의학과의원",
  "address": "전북 진안군 진안읍 진무로 1128-4",
  "phone": "063-433-6800",
  "lat": 127.431737,
  "lng": 35.7926162
 },
 {
  "id": 909,
  "name": "우리병원",
  "address": "전북 정읍시 정신로 1143-1",
  "phone": "063-571-0845",
  "lat": 126.885563,
  "lng": 35.6867195
 },
 {
  "id": 910,
  "name": "우리정형외과의원",
  "address": "전북 군산시 신영1길 21 자산의원",
  "phone": "063-445-3660",
  "lat": 126.718767,
  "lng": 35.983964
 },
 {
  "id": 911,
  "name": "웰빙정형외과의원",
  "address": "전북 익산시 선화로 101",
  "phone": "063-858-4100",
  "lat": 126.942196,
  "lng": 35.9491252
 },
 {
  "id": 912,
  "name": "으뜸정형외과의원",
  "address": "전북 군산시 공단대로 394",
  "phone": "063-443-0700",
  "lat": 126.698557,
  "lng": 35.9625916
 },
 {
  "id": 913,
  "name": "이남심내과의원",
  "address": "전북 전주시 덕진구 안덕원로 157",
  "phone": "063-274-8858",
  "lat": 127.145218,
  "lng": 35.833388
 },
 {
  "id": 914,
  "name": "이덕수내과의원",
  "address": "전북 전주시 덕진구 정언신로 89",
  "phone": "063-241-7582",
  "lat": 127.163686,
  "lng": 35.8313187
 },
 {
  "id": 915,
  "name": "이명철정형외과의원",
  "address": "전북 김제시 동서로 125",
  "phone": "063-544-8083",
  "lat": 126.882946,
  "lng": 35.7976538
 },
 {
  "id": 916,
  "name": "익산성모병원",
  "address": "전북 익산시 동서로 309",
  "phone": "063-841-0714",
  "lat": 126.968053,
  "lng": 35.9514874
 },
 {
  "id": 917,
  "name": "익산시보건소",
  "address": "전북 익산시 무왕로 975",
  "phone": "1577-0072",
  "lat": 126.966586,
  "lng": 35.9608057
 },
 {
  "id": 918,
  "name": "임내과의원",
  "address": "전북 익산시 하나로10길 3 파리바게뜨영등2동",
  "phone": "063-833-1140",
  "lat": 126.981806,
  "lng": 35.9608362
 },
 {
  "id": 919,
  "name": "임실군보건의료원",
  "address": "전북 임실군 임실읍 호국로 1680",
  "phone": "063-640-3101",
  "lat": 127.28709,
  "lng": 35.6126398
 },
 {
  "id": 920,
  "name": "장내과의원",
  "address": "전북 정읍시 신태인읍 신태인중앙로 8",
  "phone": "063-571-8737",
  "lat": 126.886047,
  "lng": 35.6881169
 },
 {
  "id": 921,
  "name": "장수보건의료원",
  "address": "전북 장수군 장수읍 장천로 247",
  "phone": "063-351-8000",
  "lat": 127.519844,
  "lng": 35.6543221
 },
 {
  "id": 922,
  "name": "장수군보건의료원",
  "address": "전북 장수군 장수읍 장천로 247",
  "phone": "063-351-8000",
  "lat": 127.519844,
  "lng": 35.6543221
 },
 {
  "id": 923,
  "name": "전라북도 남원의료원",
  "address": "전북 남원시 충정로 365",
  "phone": "063-620-1114",
  "lat": 127.408843,
  "lng": 35.4320491
 },
 {
  "id": 924,
  "name": "전라북도군산의료원",
  "address": "전북 군산시 의료원로 27",
  "phone": "063-472-5000",
  "lat": 126.712399,
  "lng": 35.9545867
 },
 {
  "id": 925,
  "name": "전주21세기병원",
  "address": "전북 전주시 덕진구 송천중앙로 43",
  "phone": "063-270-5200",
  "lat": 127.119567,
  "lng": 35.8508913
 },
 {
  "id": 926,
  "name": "전주고려병원",
  "address": "전북 전주시 덕진구 안덕원로 367",
  "phone": "063-240-7300",
  "lat": 127.166913,
  "lng": 35.8399122
 },
 {
  "id": 927,
  "name": "전주기독병원",
  "address": "전북 전주시 완산구 거마평로 185",
  "phone": "063-220-7000",
  "lat": 127.115422,
  "lng": 35.8087166
 },
 {
  "id": 928,
  "name": "전주병원",
  "address": "전북 전주시 완산구 한두평3길 13",
  "phone": "063-220-7200",
  "lat": 127.124726,
  "lng": 35.8150342
 },
 {
  "id": 929,
  "name": "전주한양병원",
  "address": "전북 전주시 완산구 장승배기로 204",
  "phone": "063-220-5000",
  "lat": 127.135139,
  "lng": 35.7961418
 },
 {
  "id": 930,
  "name": "정읍시보건소",
  "address": "전북 정읍시 수성1로 61",
  "phone": "063-539-6137",
  "lat": 126.854531,
  "lng": 35.5779368
 },
 {
  "id": 931,
  "name": "줄포백의원",
  "address": "전북 부안군 줄포면 줄포2길 5-3",
  "phone": "063-582-0011",
  "lat": 126.677227,
  "lng": 35.5895775
 },
 {
  "id": 932,
  "name": "중앙정형외과의원",
  "address": "전북 익산시 익산대로 156",
  "phone": "063-841-2277",
  "lat": 126.947533,
  "lng": 35.9401514
 },
 {
  "id": 933,
  "name": "진성호내과의원",
  "address": "전북 군산시 대학로 248",
  "phone": "063-466-3155",
  "lat": 126.698315,
  "lng": 35.9709183
 },
 {
  "id": 934,
  "name": "차병원",
  "address": "전북 군산시 수송로 8",
  "phone": "063-460-3300",
  "lat": 126.69757,
  "lng": 35.9684561
 },
 {
  "id": 935,
  "name": "하나외과의원",
  "address": "전북 정읍시 중앙1길 58 건강종합약국",
  "phone": "063-535-9966",
  "lat": 126.8519,
  "lng": 35.5687404
 },
 {
  "id": 936,
  "name": "하나의원",
  "address": "전북 남원시 시청로 59",
  "phone": "063-625-4146",
  "lat": 127.389492,
  "lng": 35.4155468
 },
 {
  "id": 937,
  "name": "한국건강관리협회",
  "address": "전북지부 전북 전주시 덕진구 사평로 40",
  "phone": "063-259-8900",
  "lat": 127.121523,
  "lng": 35.8410567
 },
 {
  "id": 938,
  "name": "한독의원",
  "address": "전북 군산시 옥서면 옥구저수지로 200",
  "phone": "063-471-5500",
  "lat": 126.645879,
  "lng": 35.9253073
 },
 {
  "id": 939,
  "name": "한사랑의원",
  "address": "전북 장수군 장수읍 시장로 3",
  "phone": "063-351-8575",
  "lat": 127.518475,
  "lng": 35.6492809
 },
 {
  "id": 940,
  "name": "한양내과의원",
  "address": "전북 군산시 나운로 48 소원빌딩",
  "phone": "063-461-2222",
  "lat": 126.701307,
  "lng": 35.9682762
 },
 {
  "id": 941,
  "name": "한양정형외과의원",
  "address": "전북 군산시 공단대로 595",
  "phone": "063-464-5550",
  "lat": 126.681259,
  "lng": 35.9718654
 },
 {
  "id": 942,
  "name": "한일의원",
  "address": "전북 전주시 덕진구 쪽구름로 68-2",
  "phone": "063-211-0011",
  "lat": 127.076845,
  "lng": 35.8717265
 },
 {
  "id": 943,
  "name": "현대가정의학과",
  "address": "전북 부안군 부안읍 부풍로 48-1",
  "phone": "063-584-6393",
  "lat": 126.732168,
  "lng": 35.726878
 },
 {
  "id": 944,
  "name": "현대내과의원",
  "address": "전북 전주시 덕진구 기린대로 272",
  "phone": "063-253-3843",
  "lat": 127.142567,
  "lng": 35.8299754
 },
 {
  "id": 945,
  "name": "현대의원",
  "address": "전북 군산시 대학로 7-11",
  "phone": "063-442-8686",
  "lat": 126.713416,
  "lng": 35.9889891
 },
 {
  "id": 946,
  "name": "현대의원",
  "address": "전북 익산시 함열읍 함열중앙로 20",
  "phone": "063-861-8275",
  "lat": 126.959495,
  "lng": 36.0787108
 },
 {
  "id": 947,
  "name": "혜성병원",
  "address": "전북 부안군 부안읍 부령로 33",
  "phone": "063-583-5001",
  "lat": 126.746198,
  "lng": 35.7326136
 },
 {
  "id": 948,
  "name": "홍내과의원",
  "address": "전북 익산시 고봉로30길 22",
  "phone": "063-833-2626",
  "lat": 126.972496,
  "lng": 35.9557784
 },
 {
  "id": 949,
  "name": "홍외과의원",
  "address": "전북 완주군 삼례읍 삼봉로 35",
  "phone": "063-291-3888",
  "lat": 127.075388,
  "lng": 35.9126349
 },
 {
  "id": 950,
  "name": "가족보건의원",
  "address": "광주광역시 남구 서문대로 816",
  "phone": "062-670-4070",
  "lat": 126.900443,
  "lng": 35.1313867
 },
 {
  "id": 951,
  "name": "강남병원",
  "address": "전남 광양시 중마 중앙로 17",
  "phone": "061-818-7577",
  "lat": 127.697742,
  "lng": 34.9316814
 },
 {
  "id": 952,
  "name": "강진군 보건소",
  "address": "전남 강진군 강진읍 목리길 11",
  "phone": "061-430-3536",
  "lat": 126.775229,
  "lng": 34.6379215
 },
 {
  "id": 953,
  "name": "고흥군 보건소",
  "address": "전남 고흥군 고흥읍 등암3길 5",
  "phone": "061-830-5321",
  "lat": 127.268707,
  "lng": 34.5924334
 },
 {
  "id": 954,
  "name": "고흥윤호21병원",
  "address": "전남 고흥군 고흥읍 터미널길 16",
  "phone": "061-830-7000",
  "lat": 127.281563,
  "lng": 34.6066833
 },
 {
  "id": 955,
  "name": "고흥종합병원",
  "address": "전남 고흥군 고흥읍 고흥로 1935",
  "phone": "061-830-3183",
  "lat": 127.294184,
  "lng": 34.6211126
 },
 {
  "id": 956,
  "name": "곡성보건의료원",
  "address": "전남 곡성군 곡성읍 학정3길 6",
  "phone": "061-362-4000",
  "lat": 127.28969,
  "lng": 35.2838006
 },
 {
  "id": 957,
  "name": "곡성사랑병원",
  "address": "전남 곡성군 곡성읍 곡성로 761",
  "phone": "061-360-6000",
  "lat": 127.287971,
  "lng": 35.2762786
 },
 {
  "id": 958,
  "name": "광양사랑병원",
  "address": "전남 광양시 공영로 71",
  "phone": "061-797-7200",
  "lat": 127.697014,
  "lng": 34.9361744
 },
 {
  "id": 959,
  "name": "광양서울병원",
  "address": "전남 광양시 진등길 93",
  "phone": "061-798-9800",
  "lat": 127.691411,
  "lng": 34.9572532
 },
 {
  "id": 960,
  "name": "광양시 보건소",
  "address": "전남 광양시 광양읍 인덕로 1100",
  "phone": "061-797-4023",
  "lat": 127.583079,
  "lng": 34.9807149
 },
 {
  "id": 961,
  "name": "광주경무의원",
  "address": "전남 나주시 내영산2길 49",
  "phone": "061-333-7083",
  "lat": 126.704176,
  "lng": 35.0084247
 },
 {
  "id": 962,
  "name": "광주광산구 보건소",
  "address": "광주광역시 광산구 광산로29번길 15",
  "phone": "062-960-8742",
  "lat": 126.793875,
  "lng": 35.1395976
 },
 {
  "id": 963,
  "name": "광주기독병원",
  "address": "광주광역시 남구 양림로 37",
  "phone": "062-650-5570",
  "lat": 126.911672,
  "lng": 35.1364431
 },
 {
  "id": 964,
  "name": "광주남구 보건소",
  "address": "광주광역시 남구 봉선로 1",
  "phone": "062-607-4483",
  "lat": 126.902482,
  "lng": 35.1328666
 },
 {
  "id": 965,
  "name": "광주동구 보건소",
  "address": "광주광역시 동구 서남로 1",
  "phone": "062-608-2758",
  "lat": 126.923075,
  "lng": 35.1458883
 },
 {
  "id": 966,
  "name": "광주동림병원",
  "address": "광주광역시 서구 하남대로 686",
  "phone": "062-510-6000",
  "lat": 126.867747,
  "lng": 35.1714924
 },
 {
  "id": 967,
  "name": "광주보훈병원",
  "address": "광주광역시 광산구 첨단월봉로 99",
  "phone": "062-602-6300",
  "lat": 126.849381,
  "lng": 35.207741
 },
 {
  "id": 968,
  "name": "광주서구 보건소",
  "address": "광주광역시 서구 경열로 33",
  "phone": "062-350-4116",
  "lat": 126.889948,
  "lng": 35.1517121
 },
 {
  "id": 969,
  "name": "광주수완병원",
  "address": "광주광역시 광산구 임방울대로 370",
  "phone": "062-958-1170",
  "lat": 126.82411,
  "lng": 35.1931589
 },
 {
  "id": 970,
  "name": "광주씨티병원",
  "address": "광주광역시 남구 서문대로654번길 5",
  "phone": "062-460-7579",
  "lat": 126.899461,
  "lng": 35.1177213
 },
 {
  "id": 971,
  "name": "광주열린병원",
  "address": "광주광역시 북구 송도로 271",
  "phone": "062-610-9000",
  "lat": 126.798971,
  "lng": 35.1378215
 },
 {
  "id": 972,
  "name": "광주일곡병원",
  "address": "광주광역시 북구 양일로 309",
  "phone": "062-608-7575",
  "lat": 126.897631,
  "lng": 35.2028616
 },
 {
  "id": 973,
  "name": "광주탑내과의원",
  "address": "광주광역시 북구 필문대로 95",
  "phone": "062-250-6025",
  "lat": 126.929678,
  "lng": 35.1620086
 },
 {
  "id": 974,
  "name": "광주한일병원",
  "address": "광주광역시 남구 봉선중앙로 137",
  "phone": "062-600-1000",
  "lat": 126.910381,
  "lng": 35.1333505
 },
 {
  "id": 975,
  "name": "광주현대병원",
  "address": "광주광역시 북구 설죽로 291",
  "phone": "062-570-0114",
  "lat": 126.898004,
  "lng": 35.1856552
 },
 {
  "id": 976,
  "name": "광주희망병원",
  "address": "광주광역시 북구 하서로 429",
  "phone": "062-608-6576",
  "lat": 126.87474,
  "lng": 35.2134396
 },
 {
  "id": 977,
  "name": "구례보건의료원",
  "address": "전남 구례 동편제길 30",
  "phone": "061-780-2033",
  "lat": 127.461413,
  "lng": 35.2159852
 },
 {
  "id": 978,
  "name": "근로복지공단 순천병원",
  "address": "전남 순천시 조례1길 24",
  "phone": "061-720-7114",
  "lat": 127.525195,
  "lng": 34.960977
 },
 {
  "id": 979,
  "name": "기내과의원",
  "address": "전남 목포시 청호로 176",
  "phone": "061-278-0777",
  "lat": 126.37365,
  "lng": 34.8064383
 },
 {
  "id": 980,
  "name": "김상도내과의원",
  "address": "광주광역시 북구 북문대로 144",
  "phone": "062-512-7557",
  "lat": 126.873285,
  "lng": 35.181963
 },
 {
  "id": 981,
  "name": "나주병원",
  "address": "전남 나주시 영산로 5419",
  "phone": "061-330-6136",
  "lat": 126.721411,
  "lng": 35.0364442
 },
 {
  "id": 982,
  "name": "나주시 보건소",
  "address": "전남 나주시 풍물시장2길 57-32",
  "phone": "061-339-2120",
  "lat": 126.708298,
  "lng": 34.9951935
 },
 {
  "id": 983,
  "name": "남순천의원",
  "address": "전남 순천시 중앙로 12",
  "phone": "061-741-7100",
  "lat": 127.487432,
  "lng": 34.9478838
 },
 {
  "id": 984,
  "name": "남우의료재단",
  "address": "전남 진도군 진도읍 남문길 12-11",
  "phone": "061-544-7933",
  "lat": 126.265167,
  "lng": 34.4792874
 },
 {
  "id": 985,
  "name": "담양현대의원",
  "address": "전남 담양군 담양읍 죽녹원로 51",
  "phone": "061-381-1777",
  "lat": 126.984932,
  "lng": 35.3195382
 },
 {
  "id": 986,
  "name": "대원의료재단 무안병원",
  "address": "전남 무안군 무안읍 몽탄로 65",
  "phone": "061-450-3135",
  "lat": 126.489488,
  "lng": 34.9920343
 },
 {
  "id": 987,
  "name": "대한산업보건협의 부설 전남의원",
  "address": "광주광역시 광산구 사암로390번길 37",
  "phone": "062-956-9012",
  "lat": 126.809659,
  "lng": 35.1792651
 },
 {
  "id": 988,
  "name": "돌산성심병원",
  "address": "전남 여수시 돌산읍 돌산로 1187",
  "phone": "061-644-0106",
  "lat": 127.728857,
  "lng": 34.6165549
 },
 {
  "id": 989,
  "name": "목포기독병원",
  "address": "전남 목포시 백년대로 303",
  "phone": "061-280-7117",
  "lat": 126.420635,
  "lng": 34.8044272
 },
 {
  "id": 990,
  "name": "목포미래병원",
  "address": "전남 목포시 녹색로 41",
  "phone": "061-800-1000",
  "lat": 126.427181,
  "lng": 34.8232703
 },
 {
  "id": 991,
  "name": "목포새안병원",
  "address": "전남 목포시 고하대로 795-2",
  "phone": "061-260-6701",
  "lat": 126.380118,
  "lng": 34.8169186
 },
 {
  "id": 992,
  "name": "목포의료원",
  "address": "전남 목포시 이로로 18",
  "phone": "061-260-6473",
  "lat": 126.405559,
  "lng": 34.8037774
 },
 {
  "id": 993,
  "name": "목포중앙병원",
  "address": "전남 목포시 영산로 623",
  "phone": "061-280-3000",
  "lat": 126.420998,
  "lng": 34.8211768
 },
 {
  "id": 994,
  "name": "목포하당 보건지소",
  "address": "전남 목포시 석현로 48",
  "phone": "061-270-8686",
  "lat": 126.426188,
  "lng": 34.8167035
 },
 {
  "id": 995,
  "name": "목포한국병원",
  "address": "전남 목포시 영산로 483",
  "phone": "061-270-5300",
  "lat": 126.416461,
  "lng": 34.8089863
 },
 {
  "id": 996,
  "name": "무안군 보건소",
  "address": "전남 무안군 무안읍 무안로 530",
  "phone": "061-450-5041",
  "lat": 126.481414,
  "lng": 34.9905668
 },
 {
  "id": 997,
  "name": "무지개의원",
  "address": "광주광역시 북구 동문대로248번길 39",
  "phone": "062-268-9500",
  "lat": 126.937103,
  "lng": 35.1833207
 },
 {
  "id": 998,
  "name": "박유환내과의원",
  "address": "광주광역시 광산구 첨단중앙로182번길 28",
  "phone": "062-972-7518",
  "lat": 126.844379,
  "lng": 35.2216604
 },
 {
  "id": 999,
  "name": "박창현내과의원",
  "address": "전남 목포시 청호로 128-1",
  "phone": "061-277-2456",
  "lat": 126.377116,
  "lng": 34.8033554
 },
 {
  "id": 1000,
  "name": "벌교김내과의원",
  "address": "전남 보성군 벌교읍 홍암로 19",
  "phone": "061-858-2220",
  "lat": 127.346881,
  "lng": 34.8433892
 },
 {
  "id": 1001,
  "name": "벌교삼성병원",
  "address": "전남 보성군 벌교읍 남하로 12",
  "phone": "061-859-5026",
  "lat": 127.345595,
  "lng": 34.8339913
 },
 {
  "id": 1002,
  "name": "보성군 보건소",
  "address": "전남 보성군 보성읍 동산길 3",
  "phone": "061-853-4000",
  "lat": 127.08021,
  "lng": 34.7698847
 },
 {
  "id": 1003,
  "name": "상무병원",
  "address": "광주광역시 서구 상무자유로 181-7",
  "phone": "062-600-7223",
  "lat": 126.853917,
  "lng": 35.1527462
 },
 {
  "id": 1004,
  "name": "서광병원",
  "address": "광주광역시 서구 금화로59번길 6",
  "phone": "062-600-8125",
  "lat": 126.855961,
  "lng": 35.1325853
 },
 {
  "id": 1005,
  "name": "성가롤로병원",
  "address": "전남 순천시 순광로 221",
  "phone": "061-720-2167",
  "lat": 127.543154,
  "lng": 34.9647111
 },
 {
  "id": 1006,
  "name": "세브란스의원",
  "address": "전남 장성군 삼계면 사창로 77",
  "phone": "061-393-7582",
  "lat": 126.663722,
  "lng": 35.2597242
 },
 {
  "id": 1007,
  "name": "송정사랑병원",
  "address": "광주광역시 광산구 송도로 232",
  "phone": "062-949-9222",
  "lat": 126.797575,
  "lng": 35.1343309
 },
 {
  "id": 1008,
  "name": "순천의료원",
  "address": "전남 순천시 서문성터길 2",
  "phone": "061-759-9436",
  "lat": 127.483662,
  "lng": 34.9584179
 },
 {
  "id": 1009,
  "name": "순천제일병원",
  "address": "전남 순천시 기적의도서관1길 3",
  "phone": "061-720-3400",
  "lat": 127.524194,
  "lng": 34.9550053
 },
 {
  "id": 1010,
  "name": "순천중앙병원",
  "address": "전남 순천시 장명로 5",
  "phone": "061-749-5041",
  "lat": 127.484386,
  "lng": 34.9512491
 },
 {
  "id": 1011,
  "name": "순천평화병원",
  "address": "전남 순천시 양율길 180",
  "phone": "061-750-1176",
  "lat": 127.483035,
  "lng": 34.9073033
 },
 {
  "id": 1012,
  "name": "순천한국병원",
  "address": "전남 순천시 우명길 42",
  "phone": "061-740-5560",
  "lat": 127.51239,
  "lng": 34.9477453
 },
 {
  "id": 1013,
  "name": "순천현대병원",
  "address": "전남 순천시 장선배기1길 8",
  "phone": "061-720-1104",
  "lat": 127.522629,
  "lng": 34.9533985
 },
 {
  "id": 1014,
  "name": "신가병원",
  "address": "광주광역시 광산구 목련로 316",
  "phone": "062-610-8200",
  "lat": 126.829644,
  "lng": 35.1774563
 },
 {
  "id": 1015,
  "name": "신세계연합의원",
  "address": "전남 광양시 광장로 70",
  "phone": "061-792-8212",
  "lat": 127.690673,
  "lng": 34.9331279
 },
 {
  "id": 1016,
  "name": "신안군 보건소",
  "address": "전남 신안군 압해읍 천사로 1004",
  "phone": "061-240-8802",
  "lat": 126.351407,
  "lng": 34.8334082
 },
 {
  "id": 1017,
  "name": "아이안과",
  "address": "광주광역시 남구 서문대로 700",
  "phone": "062-681-7112",
  "lat": 126.89904,
  "lng": 35.121759
 },
 {
  "id": 1018,
  "name": "여수성바오로외과의원",
  "address": "전남 여수시 동문로 103-2",
  "phone": "061-662-9593",
  "lat": 127.742559,
  "lng": 34.7460575
 },
 {
  "id": 1019,
  "name": "여수연합의원",
  "address": "전남 여수시 여서로 160",
  "phone": "061-654-4000",
  "lat": 127.69933,
  "lng": 34.7478543
 },
 {
  "id": 1020,
  "name": "여수전남병원",
  "address": "전남 여수시 좌수영로 49",
  "phone": "061-640-7157",
  "lat": 127.727917,
  "lng": 34.7449829
 },
 {
  "id": 1021,
  "name": "여수중부 보건지소",
  "address": "전남 여수시 장군산길 7",
  "phone": "061-651-4000",
  "lat": 127.710116,
  "lng": 34.7551383
 },
 {
  "id": 1022,
  "name": "여수한국병원",
  "address": "전남 여수시 여천체육공원길 10",
  "phone": "061-653-2000",
  "lat": 127.674988,
  "lng": 34.7612778
 },
 {
  "id": 1023,
  "name": "여천제일병원",
  "address": "전남 여수시 쌍봉로 70",
  "phone": "061-689-8130",
  "lat": 127.6636,
  "lng": 34.7659464
 },
 {
  "id": 1024,
  "name": "연합외과의원",
  "address": "광주광역시 광산구 하남대로 294",
  "phone": "062-955-7119",
  "lat": 126.825722,
  "lng": 35.1787306
 },
 {
  "id": 1025,
  "name": "영광군 보건소",
  "address": "전남 영광군 영광읍 중앙로 203",
  "phone": "061-350-5553",
  "lat": 126.512123,
  "lng": 35.2772416
 },
 {
  "id": 1026,
  "name": "영광기독병원",
  "address": "전남 영광군 영광읍 신남로 265",
  "phone": "061-350-3088",
  "lat": 126.511071,
  "lng": 35.2747858
 },
 {
  "id": 1027,
  "name": "영암군 보건소",
  "address": "전남 영암군 영암읍 오리정길 39",
  "phone": "061-470-6566",
  "lat": 126.704255,
  "lng": 34.7951654
 },
 {
  "id": 1028,
  "name": "오재명의원",
  "address": "전남 장흥군 관산읍 정남진로 10",
  "phone": "061-867-2011",
  "lat": 126.939557,
  "lng": 34.5622957
 },
 {
  "id": 1029,
  "name": "완도대성병원",
  "address": "전남 완도군 완도읍 청해진동로 63",
  "phone": "061-554-1234",
  "lat": 126.735665,
  "lng": 34.3171501
 },
 {
  "id": 1030,
  "name": "완도보건의료원",
  "address": "전남 완도군 완도읍 농공단지길 34",
  "phone": "061-550-6736",
  "lat": 126.731323,
  "lng": 34.3362518
 },
 {
  "id": 1031,
  "name": "운암한국병원",
  "address": "광주광역시 북구 북문대로 191",
  "phone": "062-608-8230",
  "lat": 126.869767,
  "lng": 35.185096
 },
 {
  "id": 1032,
  "name": "이상명내과",
  "address": "광주광역시 동구 제봉로 10",
  "phone": "062-232-7675",
  "lat": 126.922696,
  "lng": 35.1400202
 },
 {
  "id": 1033,
  "name": "임비뇨기과의원",
  "address": "광주광역시 북구 동문대로 107",
  "phone": "062-251-7575",
  "lat": 126.92486,
  "lng": 35.1730292
 },
 {
  "id": 1034,
  "name": "장성군 보건소",
  "address": "전남 장성군 장성읍 청운11길 13",
  "phone": "061-390-7550",
  "lat": 126.782503,
  "lng": 35.3045143
 },
 {
  "id": 1035,
  "name": "장성병원",
  "address": "전남 장성군 장성읍 역전로 171",
  "phone": "061-390-9000",
  "lat": 126.783324,
  "lng": 35.3058497
 },
 {
  "id": 1036,
  "name": "장성중앙의원",
  "address": "전남 장성군 삼계면 사창로 42",
  "phone": "061-394-7273",
  "lat": 126.667201,
  "lng": 35.2582827
 },
 {
  "id": 1037,
  "name": "장흥군 보건소",
  "address": "전라남도 장흥군 장흥읍 흥성로 49 장흥군보건소",
  "phone": "061-862-4000",
  "lat": 126.90844,
  "lng": 34.6762533
 },
 {
  "id": 1038,
  "name": "장흥우리병원",
  "address": "전라남도 장흥군 장흥읍 흥성로 83 우리병원",
  "phone": "061-862-6262",
  "lat": 126.911188,
  "lng": 34.6783377
 },
 {
  "id": 1039,
  "name": "장흥종합병원",
  "address": "전남 장흥군 장흥읍 흥성로 74",
  "phone": "061-862-8300",
  "lat": 126.910971,
  "lng": 34.6770485
 },
 {
  "id": 1040,
  "name": "전남대학교병원",
  "address": "광주광역시 동구 제봉로 42",
  "phone": "062-220-6901",
  "lat": 126.922014,
  "lng": 35.1418405
 },
 {
  "id": 1041,
  "name": "전남중앙병원",
  "address": "전남 목포시 고하대로 724",
  "phone": "061-260-3160",
  "lat": 126.375806,
  "lng": 34.8104336
 },
 {
  "id": 1042,
  "name": "조선대학교병원",
  "address": "광주광역시 동구 필문대로 309",
  "phone": "062-220-3615",
  "lat": 126.934238,
  "lng": 35.1423616
 },
 {
  "id": 1043,
  "name": "중마통합 보건지소",
  "address": "전남 광양시 중동로 42",
  "phone": "061-494-4063",
  "lat": 127.693441,
  "lng": 34.9408278
 },
 {
  "id": 1044,
  "name": "진도군 보건소",
  "address": "전남 진도군 진도읍 남동1길 40-9",
  "phone": "061-540-6003",
  "lat": 126.262905,
  "lng": 34.4802654
 },
 {
  "id": 1045,
  "name": "첨단종합병원",
  "address": "광주광역시 광산구 첨단중앙로170번길 59",
  "phone": "062-601-8000",
  "lat": 126.845588,
  "lng": 35.2209769
 },
 {
  "id": 1046,
  "name": "하나로병원",
  "address": "광주광역시 서구 월드컵4강로 110",
  "phone": "062-600-1111",
  "lat": 126.872726,
  "lng": 35.1464221
 },
 {
  "id": 1047,
  "name": "하남성심병원",
  "address": "광주광역시 광산구 용아로 259",
  "phone": "062-953-6000",
  "lat": 126.801062,
  "lng": 35.1666413
 },
 {
  "id": 1048,
  "name": "한국건강관리협회",
  "address": "광주광역시 서구 대남대로 432",
  "phone": "062-363-4040",
  "lat": 126.88824,
  "lng": 35.1491056
 },
 {
  "id": 1049,
  "name": "한국병원",
  "address": "광주광역시 서구 월드컵4강로 223",
  "phone": "062-380-3000",
  "lat": 126.868552,
  "lng": 35.1560801
 },
 {
  "id": 1050,
  "name": "함평군 보건소",
  "address": "전남 함평군 함평읍 중앙길 54-8",
  "phone": "061-320-3547",
  "lat": 126.52424,
  "lng": 35.0621667
 },
 {
  "id": 1051,
  "name": "함평성심병원",
  "address": "전남 함평군 함평읍 영수길 132",
  "phone": "061-324-0001",
  "lat": 126.520162,
  "lng": 35.0622047
 },
 {
  "id": 1052,
  "name": "해남군 보건소",
  "address": "전남 해남군 해남읍 해남로 46",
  "phone": "061-531-3738",
  "lat": 126.611981,
  "lng": 34.570416
 },
 {
  "id": 1053,
  "name": "해남우리병원",
  "address": "전남 해남군 옥천면 해남로 597",
  "phone": "061-530-7070",
  "lat": 126.64662,
  "lng": 34.5842324
 },
 {
  "id": 1054,
  "name": "해남종합병원",
  "address": "전남 해남군 해남읍 해남로 45",
  "phone": "061-530-0162",
  "lat": 126.612651,
  "lng": 34.5716801
 },
 {
  "id": 1055,
  "name": "호산내과의원",
  "address": "광주광역시 광산구 내상로 16",
  "phone": "062-942-2002",
  "lat": 126.795355,
  "lng": 35.1401499
 },
 {
  "id": 1056,
  "name": "화순고려병원",
  "address": "전남 화순군 화순읍 충의로 109",
  "phone": "061-370-3793",
  "lat": 126.9896,
  "lng": 35.0560742
 },
 {
  "id": 1057,
  "name": "화순군 보건소",
  "address": "전남 화순군 화순읍 쌍충로 62",
  "phone": "061-379-5305",
  "lat": 126.982266,
  "lng": 35.0573622
 },
 {
  "id": 1058,
  "name": "화순성심병원",
  "address": "전남 화순군 화순읍 만연로 31",
  "phone": "061-370-9142",
  "lat": 126.98972,
  "lng": 35.0584718
 },
 {
  "id": 1059,
  "name": "화순전남대학교병원",
  "address": "전남 화순군 화순읍 서양로 322",
  "phone": "061-379-7777",
  "lat": 127.002984,
  "lng": 35.0593557
 },
 {
  "id": 1060,
  "name": "화순중앙병원",
  "address": "전남 화순군 화순읍 칠충로 101",
  "phone": "061-370-7200",
  "lat": 126.98117,
  "lng": 35.058633
 },
 {
  "id": 1061,
  "name": "효창요양병원",
  "address": "광주광역시 북구 서암대로 187",
  "phone": "062-510-2000",
  "lat": 126.904787,
  "lng": 35.1688866
 },
 {
  "id": 1062,
  "name": "광양사랑병원",
  "address": "전남 광양시 공영로 71 사랑병원",
  "phone": "061-797-7000",
  "lat": 127.697014,
  "lng": 34.9361744
 },
 {
  "id": 1063,
  "name": "광양서울병원",
  "address": "전남 광양시 진등길 93",
  "phone": "061-798-9800",
  "lat": 127.691411,
  "lng": 34.9572532
 },
 {
  "id": 1064,
  "name": "근로복지공단 순천병원",
  "address": "순천시 조례1길 24",
  "phone": "061-720-7114",
  "lat": 127.525195,
  "lng": 34.960977
 },
 {
  "id": 1065,
  "name": "순천성가롤로병원",
  "address": "전라남도 순천시 순광로 221",
  "phone": "061-720-2164",
  "lat": 127.543154,
  "lng": 34.9647111
 },
 {
  "id": 1066,
  "name": "순천시보건소",
  "address": "순천시 중앙로 232",
  "phone": "061-749-6687",
  "lat": 127.486558,
  "lng": 34.966744
 },
 {
  "id": 1067,
  "name": "순천의료원",
  "address": "순천시 서문성터길 2",
  "phone": "061-759-9133",
  "lat": 127.483662,
  "lng": 34.9584179
 },
 {
  "id": 1068,
  "name": "순천제일병원",
  "address": "순천시 기적의도서관1길 3",
  "phone": "061-720-3500",
  "lat": 127.524194,
  "lng": 34.9550053
 },
 {
  "id": 1069,
  "name": "순천중앙병원",
  "address": "순천시 장명로 5",
  "phone": "061-749-5041",
  "lat": 127.484386,
  "lng": 34.9512491
 },
 {
  "id": 1070,
  "name": "순천평화병원",
  "address": "순천시 양율길 180",
  "phone": "061-750-1177",
  "lat": 127.483035,
  "lng": 34.9073033
 },
 {
  "id": 1071,
  "name": "순천희망병원",
  "address": "순천시 중앙로 4",
  "phone": "061-811-2210",
  "lat": 127.488196,
  "lng": 34.9475833
 },
 {
  "id": 1072,
  "name": "신대온누리병원",
  "address": "순천시 해룡면 향매로 97",
  "phone": "050-714-650140",
  "lat": 127.550042,
  "lng": 34.9336009
 },
 {
  "id": 1073,
  "name": "중마통합보건지소",
  "address": "광양시 중동로 42",
  "phone": "061-797-4063",
  "lat": 127.693441,
  "lng": 34.9408278
 },
 {
  "id": 1074,
  "name": "강남의원",
  "address": "영동군 영동읍 중앙로3길 5 1층",
  "phone": "043-743-5522",
  "lat": 127.777612,
  "lng": 36.1747672
 },
 {
  "id": 1075,
  "name": "공군항공우주의료원(생도전용)",
  "address": "충청북도 청주시 상당구 남일면 쌍수리 18",
  "phone": "043-290-6669",
  "lat": 127.534454,
  "lng": 36.584448
 },
 {
  "id": 1076,
  "name": "금빛가정의학과의원",
  "address": "영동군 영동읍 용산면 용산로 348(류의원)",
  "phone": "043-742-9035",
  "lat": 127.82859,
  "lng": 36.2617669
 },
 {
  "id": 1077,
  "name": "대전대학교 청주한방병원",
  "address": "청주시 상당구 용담로105번길 4",
  "phone": "0507-1409-3784",
  "lat": 127.502269,
  "lng": 36.6339062
 },
 {
  "id": 1078,
  "name": "대한산업보건협회 부설 충북의원",
  "address": "청주시 흥덕구 직지대로 397",
  "phone": "043-263-7138",
  "lat": 127.437122,
  "lng": 36.6445883
 },
 {
  "id": 1079,
  "name": "무릅날개정형외과의원",
  "address": "청주 흥덕구 대농로 66",
  "phone": "0507-1433-3400",
  "lat": 127.42949,
  "lng": 36.6415431
 },
 {
  "id": 1080,
  "name": "보은군보건소",
  "address": "보은군 보은읍 동광길 50",
  "phone": "043-540-5602",
  "lat": 127.716198,
  "lng": 36.4865985
 },
 {
  "id": 1081,
  "name": "보은성모병원",
  "address": "보은군 보은읍 뱃들로 53 연세병원",
  "phone": "043-544-7444",
  "lat": 127.724432,
  "lng": 36.4864138
 },
 {
  "id": 1082,
  "name": "보은한양병원",
  "address": "보은군 보은읍 보은로 102",
  "phone": "043-544-1500",
  "lat": 127.718265,
  "lng": 36.483279
 },
 {
  "id": 1083,
  "name": "부강제일의원",
  "address": "새종 부강면 부강5길 11-1",
  "phone": "044-275-3330",
  "lat": 127.36827,
  "lng": 36.528637
 },
 {
  "id": 1084,
  "name": "서울정형외과",
  "address": "옥천군 옥천읍 삼금로 2 의원",
  "phone": "043-733-0677",
  "lat": 127.566894,
  "lng": 36.2989589
 },
 {
  "id": 1085,
  "name": "송내과의원",
  "address": "옥천군 옥천읍 삼금로 13 병원",
  "phone": "043-731-7171",
  "lat": 127.56641,
  "lng": 36.2997812
 },
 {
  "id": 1086,
  "name": "영동군보건소",
  "address": "영동군 영동읍 반곡동길 7 영동군보건소",
  "phone": "043-740-5603",
  "lat": 127.776117,
  "lng": 36.1685407
 },
 {
  "id": 1087,
  "name": "영동병원",
  "address": "영동군 영동읍 대학로 106 감고을요양병원",
  "phone": "043-740-9000",
  "lat": 127.781142,
  "lng": 36.1855674
 },
 {
  "id": 1088,
  "name": "오정형외과의원",
  "address": "영동군 영동읍 계산로 5 (계산리)",
  "phone": "043-742-3711",
  "lat": 127.778327,
  "lng": 36.175132
 },
 {
  "id": 1089,
  "name": "옥산의원",
  "address": "청주시 흥덕구 옥산면 옥산시내1길26",
  "phone": "043-269-3094",
  "lat": 127.374143,
  "lng": 36.6633021
 },
 {
  "id": 1090,
  "name": "옥천군보건소",
  "address": "옥천군 옥천읍 삼양로8길 10 관공서",
  "phone": "043-730-2114",
  "lat": 127.570161,
  "lng": 36.3042242
 },
 {
  "id": 1091,
  "name": "옥천성모병원",
  "address": "충청북도 옥천군 옥천읍 성왕로 1195",
  "phone": "0507-1365-7002",
  "lat": 127.572065,
  "lng": 36.3134161
 },
 {
  "id": 1092,
  "name": "조궁희정형외과의원",
  "address": "청주시 흥덕구 복대로 186",
  "phone": "043-234-1294",
  "lat": 127.441049,
  "lng": 36.6331116
 },
 {
  "id": 1093,
  "name": "중앙의원",
  "address": "옥천군 옥천읍 중앙로 17-24",
  "phone": "043-732-1877",
  "lat": 127.567403,
  "lng": 36.3000829
 },
 {
  "id": 1094,
  "name": "진천군보건소",
  "address": "진천군 진천읍 중앙북1길 11-8",
  "phone": "0507-1409-7771",
  "lat": 127.439522,
  "lng": 36.8605568
 },
 {
  "id": 1095,
  "name": "진천의원",
  "address": "진천군 진천읍 중앙동로 56",
  "phone": "043-533-2288",
  "lat": 127.444816,
  "lng": 36.8547972
 },
 {
  "id": 1096,
  "name": "청주병원",
  "address": "청주시 상당구 상당로 163",
  "phone": "043-220-1234",
  "lat": 127.488731,
  "lng": 36.6430817
 },
 {
  "id": 1097,
  "name": "청주성모병원",
  "address": "청주시 청원구 주성로 173-19",
  "phone": "043-219-8000",
  "lat": 127.486464,
  "lng": 36.6738552
 },
 {
  "id": 1098,
  "name": "청주시 상당보건소",
  "address": "청주시 상당구 남일면 단재로 480",
  "phone": "043-201-3117",
  "lat": 127.505207,
  "lng": 36.5888736
 },
 {
  "id": 1099,
  "name": "청주시 서원보건소",
  "address": "청주시 서원구 사직대로 227",
  "phone": "043-201-3220",
  "lat": 127.469429,
  "lng": 36.6372928
 },
 {
  "id": 1100,
  "name": "청주시 청원보건소",
  "address": "청주시 청원구 오창읍 과학산업3로 238",
  "phone": "043-201-3421",
  "lat": 127.431637,
  "lng": 36.7099574
 },
 {
  "id": 1101,
  "name": "청주시 흥덕보건소",
  "address": "청주시 흥덕구 비하로12번길 46",
  "phone": "043-201-3580",
  "lat": 127.42652,
  "lng": 36.6300825
 },
 {
  "id": 1102,
  "name": "청주의료원",
  "address": "청주시 서원구 흥덕로 48",
  "phone": "043-279-0114",
  "lat": 127.473487,
  "lng": 36.6408362
 },
 {
  "id": 1103,
  "name": "청주현대병원",
  "address": "청주시 흥덕구 비하로 65",
  "phone": "043-237-2114",
  "lat": 127.424523,
  "lng": 36.6330002
 },
 {
  "id": 1104,
  "name": "최내과의원",
  "address": "청주시 상당구 월평로 182",
  "phone": "0507-1302-2066",
  "lat": 127.504372,
  "lng": 36.6100266
 },
 {
  "id": 1105,
  "name": "충북의원",
  "address": "청주시 상당구 가덕면 교육원로 131-20",
  "phone": "043-297-6488",
  "lat": 127.567713,
  "lng": 36.5761304
 },
 {
  "id": 1106,
  "name": "하나병원",
  "address": "청주시 흥덕구 2순환로 1262",
  "phone": "043-230-6114",
  "lat": 127.430889,
  "lng": 36.6236147
 },
 {
  "id": 1107,
  "name": "한국병원",
  "address": "청주시 상당구 단재로 106",
  "phone": "043-222-7000",
  "lat": 127.496275,
  "lng": 36.6197926
 },
 {
  "id": 1108,
  "name": "현대의원",
  "address": "청주시 청원구 오창읍 팔결로 706",
  "phone": "043-217-9889",
  "lat": 127.456332,
  "lng": 36.7412062
 },
 {
  "id": 1109,
  "name": "혜민의원",
  "address": "보은군 보은읍 삼산남로 8 2층",
  "phone": "043-543-5771",
  "lat": 127.721918,
  "lng": 36.4836445
 },
 {
  "id": 1110,
  "name": "효성병원",
  "address": "청주시 상당구 쇠내로 16",
  "phone": "043-221-5000",
  "lat": 127.495343,
  "lng": 36.6243742
 },
 {
  "id": 1111,
  "name": "고려정형외과",
  "address": "증평군 증평읍 중앙로 231",
  "phone": "043-838-7501",
  "lat": 127.583178,
  "lng": 36.7859069
 },
 {
  "id": 1112,
  "name": "괴산 성모병원",
  "address": "괴산군 괴산읍 임꺽정로 116",
  "phone": "043-830-5400",
  "lat": 127.784211,
  "lng": 36.8154086
 },
 {
  "id": 1113,
  "name": "괴산군 보건소",
  "address": "괴산군 괴산읍 동진천길 43",
  "phone": "043-830-2348",
  "lat": 127.796339,
  "lng": 36.8079573
 },
 {
  "id": 1114,
  "name": "단양군 보건소",
  "address": "단양군 단양읍 삼봉로 53",
  "phone": "043-420-3203",
  "lat": 128.35013,
  "lng": 36.9815845
 },
 {
  "id": 1115,
  "name": "온빛밝은안과의원",
  "address": "충주시 봉계1길 42",
  "phone": "043-846-2377",
  "lat": 127.914999,
  "lng": 36.9802707
 },
 {
  "id": 1116,
  "name": "음성군 보건소",
  "address": "음성군 읍성읍 중앙로 49",
  "phone": "043-872-2136",
  "lat": 127.688956,
  "lng": 36.9286773
 },
 {
  "id": 1117,
  "name": "인곡자애병원",
  "address": "음성군 맹동면 꽃동네길 37",
  "phone": "043-879-0303",
  "lat": 127.577275,
  "lng": 36.9414268
 },
 {
  "id": 1118,
  "name": "의료법인 태성의료재단 제일조은병원",
  "address": "음성군 금왕읍 음성로 1230번길 12",
  "phone": "043-883-8800",
  "lat": 127.598706,
  "lng": 36.9975926
 },
 {
  "id": 1119,
  "name": "제천 서울병원",
  "address": "제천시 숭문로 57",
  "phone": "043-642-7606",
  "lat": 128.206015,
  "lng": 37.1387484
 },
 {
  "id": 1120,
  "name": "제천 세명의원",
  "address": "제천시 세명로 65",
  "phone": "043-645-1010",
  "lat": 128.19489,
  "lng": 37.1798924
 },
 {
  "id": 1121,
  "name": "제천시 보건소",
  "address": "제천시 의림대로 242",
  "phone": "043-646-2720",
  "lat": 128.215857,
  "lng": 37.1489554
 },
 {
  "id": 1122,
  "name": "중앙 외과의원",
  "address": "괴산군 괴산읍 읍내로 11길 14",
  "phone": "043-832-2448",
  "lat": 127.793377,
  "lng": 36.8098243
 },
 {
  "id": 1123,
  "name": "증평군 보건소",
  "address": "증평군 증평읍 보건복지로 64-1",
  "phone": "043-835-4220",
  "lat": 127.586172,
  "lng": 36.7743942
 },
 {
  "id": 1124,
  "name": "충주 성모안과",
  "address": "충주시 중앙로 33 성모메디컬센터 1층",
  "phone": "043-848-6732",
  "lat": 127.92694,
  "lng": 36.9730149
 },
 {
  "id": 1125,
  "name": "충주 중앙병원",
  "address": "충주시 충인1길 60",
  "phone": "043-856-2100",
  "lat": 127.932961,
  "lng": 36.9740761
 },
 {
  "id": 1126,
  "name": "충주시 보건소",
  "address": "충주시 사직산 21길 34",
  "phone": "043-850-3515",
  "lat": 127.927918,
  "lng": 36.9712232
 },
 {
  "id": 1127,
  "name": "충주의료원",
  "address": "충주시 안림로 239-50",
  "phone": "043-871-0114",
  "lat": 127.969974,
  "lng": 36.9784203
 },
 {
  "id": 1128,
  "name": "강경삼성병원",
  "address": "충청남도 논산시 강경읍 계백로 152-1",
  "phone": "041-745-7119",
  "lat": 127.01703,
  "lng": 36.1575009
 },
 {
  "id": 1129,
  "name": "강내과의원",
  "address": "충청남도 서산시 안견로 246 (동문동)",
  "phone": "041-665-7401",
  "lat": 126.456264,
  "lng": 36.7781238
 },
 {
  "id": 1130,
  "name": "건강성모의원",
  "address": "충청남도 홍성군 홍성읍 홍성천길 198",
  "phone": "041-632-2224",
  "lat": 126.667025,
  "lng": 36.6002469
 },
 {
  "id": 1131,
  "name": "건양대학교 부여병원",
  "address": "충청남도 부여군 부여읍 계백로 200",
  "phone": "041-837-1200",
  "lat": 126.901605,
  "lng": 36.2754989
 },
 {
  "id": 1132,
  "name": "계룡시보건소",
  "address": "충청남도 장안로 54(금암동)",
  "phone": "041-840-3565",
  "lat": 127.250057,
  "lng": 36.2730562
 },
 {
  "id": 1133,
  "name": "고명철정형외과",
  "address": "세종특별자치시 조치원읍 새내로 77",
  "phone": "044-865-3414",
  "lat": 127.298316,
  "lng": 36.598661
 },
 {
  "id": 1134,
  "name": "고북보건지소",
  "address": "충청남도 서산시 고북면 고북1로 294",
  "phone": "041-660-2767",
  "lat": 126.533671,
  "lng": 36.667067
 },
 {
  "id": 1135,
  "name": "공주시보건소",
  "address": "충청남도 공주시 의당로 23 (신관동)",
  "phone": "041-840-2550",
  "lat": 127.129611,
  "lng": 36.4743152
 },
 {
  "id": 1136,
  "name": "공주의료원",
  "address": "충남 공주시 무령로 77",
  "phone": "041-850-5207",
  "lat": 127.108903,
  "lng": 36.4590791
 },
 {
  "id": 1137,
  "name": "공주현대병원",
  "address": "충청남도 공주시 번영2로 18-10 (신관동)",
  "phone": "041-850-7707",
  "lat": 127.133005,
  "lng": 36.4688686
 },
 {
  "id": 1138,
  "name": "국군계룡대지구병원",
  "address": "충청남도 계룡시 신도안면 계룡대로 663",
  "phone": "041-550-4762",
  "lat": 127.219828,
  "lng": 36.3002588
 },
 {
  "id": 1139,
  "name": "금강병원",
  "address": "충청남도 서천군 장항읍 장항로 91번길 40",
  "phone": "041-453-8000",
  "lat": 126.687979,
  "lng": 36.0163946
 },
 {
  "id": 1140,
  "name": "금강의원",
  "address": "충청남도 태안군 안면읍 장터로 105-4",
  "phone": "041-675-7582",
  "lat": 126.345505,
  "lng": 36.5165751
 },
 {
  "id": 1141,
  "name": "금산365의원",
  "address": "충청남도 금산군 금산읍 후곤천길 73",
  "phone": "041-754-9365",
  "lat": 127.49031,
  "lng": 36.1056944
 },
 {
  "id": 1142,
  "name": "금산군보건소",
  "address": "충청남도 금산군 금산읍 금산로 1559",
  "phone": "041-750-4385",
  "lat": 127.491771,
  "lng": 36.1120689
 },
 {
  "id": 1143,
  "name": "김광석외과",
  "address": "충청남도 계룡시 엄사면 번영로 14",
  "phone": "041-841-4411",
  "lat": 127.24356,
  "lng": 36.2882725
 },
 {
  "id": 1144,
  "name": "김외과의원",
  "address": "충청남도 논산시 연무읍 안심로110번길 2",
  "phone": "041-741-7722",
  "lat": 127.099888,
  "lng": 36.1307046
 },
 {
  "id": 1145,
  "name": "남외과의원",
  "address": "충청남도 당진시 합덕읍 운산리 293-29",
  "phone": "041-362-2782",
  "lat": 126.774901,
  "lng": 36.8089117
 },
 {
  "id": 1146,
  "name": "논산보건소",
  "address": "충청남도 논산시 관촉로277번길 23-13 (취암동)",
  "phone": "041-746-8084",
  "lat": 127.090783,
  "lng": 36.2026909
 },
 {
  "id": 1147,
  "name": "놀뫼의료재단 논산탑병원",
  "address": "충청남도 논산시 중앙로480번길 12 (반월동)",
  "phone": "041-734-5336",
  "lat": 127.084971,
  "lng": 36.2062818
 },
 {
  "id": 1148,
  "name": "누가연합의원",
  "address": "세종특별자치시 전의면 읍내길 7",
  "phone": "044-863-0494",
  "lat": 127.204395,
  "lng": 36.6800137
 },
 {
  "id": 1149,
  "name": "단국대부속병원",
  "address": "충청남도 천안시 동남구 망향로 201 (안서동)",
  "phone": "041-550-6784",
  "lat": 127.173264,
  "lng": 36.8429387
 },
 {
  "id": 1150,
  "name": "당진성모병원",
  "address": "충청남도 당진시 당진중앙1로 43",
  "phone": "041-351-0200",
  "lat": 126.627564,
  "lng": 36.8931886
 },
 {
  "id": 1151,
  "name": "당진시보건소",
  "address": "충청남도 당진시 서부로 56",
  "phone": "041-360-6046",
  "lat": 126.629892,
  "lng": 36.8873298
 },
 {
  "id": 1152,
  "name": "대산보건지소",
  "address": "충청남도 서산시 대산읍 대산1로 78-6",
  "phone": "041-663-8169",
  "lat": 126.437641,
  "lng": 36.9392773
 },
 {
  "id": 1153,
  "name": "대성새마을금고의원",
  "address": "충청남도 공주시 정안면 정안중앙길 187",
  "phone": "041-858-6315",
  "lat": 127.121376,
  "lng": 36.6110907
 },
 {
  "id": 1154,
  "name": "명진의료재단 삼성연합의원",
  "address": "충청남도 공주시 번영3로 4-7",
  "phone": "041-854-5211",
  "lat": 127.133852,
  "lng": 36.4680205
 },
 {
  "id": 1155,
  "name": "목천 서울의원",
  "address": "충청남도 천안시 동남구 목천읍 충절로 881",
  "phone": "041-558-8872",
  "lat": 127.208425,
  "lng": 36.7728038
 },
 {
  "id": 1156,
  "name": "문병탁의원",
  "address": "충청남도 천안시 동남구 중앙로 88 (오룡동)",
  "phone": "041-563-7582",
  "lat": 127.15244,
  "lng": 36.8060488
 },
 {
  "id": 1157,
  "name": "미래한국병원",
  "address": "충청남도 아산시 번영로230번길 13 (모종동)",
  "phone": "041-545-6114",
  "lat": 127.016372,
  "lng": 36.7828411
 },
 {
  "id": 1158,
  "name": "바른몸 의원",
  "address": "충청남도 천안시 동남구 터미널9길 50 2층 (신부동)",
  "phone": "041-557-0911",
  "lat": 127.157987,
  "lng": 36.8227842
 },
 {
  "id": 1159,
  "name": "바른정형외과",
  "address": "충청남도 공주시 번영1로 4-7 (신관동)",
  "phone": "041-854-5900",
  "lat": 127.131443,
  "lng": 36.468654
 },
 {
  "id": 1160,
  "name": "배방 보건지소",
  "address": "충청남도 아산시 배방읍 배방로 38",
  "phone": "041-537-3475",
  "lat": 127.053637,
  "lng": 36.7738826
 },
 {
  "id": 1161,
  "name": "백제병원",
  "address": "충청남도 논산시 시민로294번길 14",
  "phone": "041-733-2191",
  "lat": 127.094351,
  "lng": 36.1924595
 },
 {
  "id": 1162,
  "name": "병천의원",
  "address": "충청남도 천안시 동남구 병천면 충절로 1757-4",
  "phone": "041-564-1060",
  "lat": 127.300055,
  "lng": 36.7624085
 },
 {
  "id": 1163,
  "name": "부강정형외과병원",
  "address": "충청남도 천안시 서북구 쌍용1길 21",
  "phone": "041-577-7733",
  "lat": 127.119285,
  "lng": 36.8014276
 },
 {
  "id": 1164,
  "name": "보령시보건소",
  "address": "충청남도 보령시 남포면 보령남로 234",
  "phone": "041-930-9066",
  "lat": 126.601667,
  "lng": 36.3244011
 },
 {
  "id": 1165,
  "name": "보령연합정형의원",
  "address": "충청남도 보령시 주공로 5 (동대동)",
  "phone": "041-931-4881",
  "lat": 126.602271,
  "lng": 36.3456978
 },
 {
  "id": 1166,
  "name": "보령중앙병원",
  "address": "충청남도 보령시 지장골길 69 (죽정동)",
  "phone": "041-936-2222",
  "lat": 126.602738,
  "lng": 36.3588474
 },
 {
  "id": 1167,
  "name": "부석보건지소",
  "address": "충청남도 서산시 부석면 취평2길 42-10",
  "phone": "041-662-4161",
  "lat": 126.394121,
  "lng": 36.7150521
 },
 {
  "id": 1168,
  "name": "부여군보건소",
  "address": "충청남도 부여군 부여읍 성왕로 205",
  "phone": "041-830-2488",
  "lat": 126.909554,
  "lng": 36.2829941
 },
 {
  "id": 1169,
  "name": "삼성디스플레이(주) 아산LCD 부속의원",
  "address": "충청남도 아산시 탕정면 삼성로 181",
  "phone": "041-535-1515",
  "lat": 127.063829,
  "lng": 36.8140581
 },
 {
  "id": 1170,
  "name": "삼성전자(주) 온양사업장부속의원",
  "address": "충청남도 아산시 배방읍 배방로 158",
  "phone": "041-540-8815",
  "lat": 127.063746,
  "lng": 36.7667499
 },
 {
  "id": 1171,
  "name": "삼성전자부속의원",
  "address": "충청남도 천안시 서북구 번영로 465",
  "phone": "041-599-5888",
  "lat": 127.1153,
  "lng": 36.8416027
 },
 {
  "id": 1172,
  "name": "새로나병원",
  "address": "충청남도 천안시 동남구 향교1길 130-23 (유량동)",
  "phone": "041-520-7070",
  "lat": 127.169375,
  "lng": 36.8125681
 },
 {
  "id": 1173,
  "name": "서산시보건소",
  "address": "충청남도 서산시 벌말1길 51 (석림동)",
  "phone": "041-661-6515",
  "lat": 126.467121,
  "lng": 36.7762447
 },
 {
  "id": 1174,
  "name": "서산의료원",
  "address": "충청남도 서산시 중앙로 149 (석림동)",
  "phone": "041-689-7000",
  "lat": 126.465502,
  "lng": 36.7754895
 },
 {
  "id": 1175,
  "name": "서산중앙병원",
  "address": "충청남도 서산시 수석산업로 5 (수석동)",
  "phone": "041-661-1051",
  "lat": 126.503501,
  "lng": 36.781755
 },
 {
  "id": 1176,
  "name": "서울연합의원",
  "address": "충청남도 천안시 동남구 봉정로 20",
  "phone": "041-571-8275",
  "lat": 127.139504,
  "lng": 36.803965
 },
 {
  "id": 1177,
  "name": "서울외과의원",
  "address": "충청남도 논산시 연무읍 안심로 113",
  "phone": "041-741-5703",
  "lat": 127.099411,
  "lng": 36.1311917
 },
 {
  "id": 1178,
  "name": "서울의원",
  "address": "충청남도 아산시 둔포면 둔포중앙로 137",
  "phone": "041-531-4567",
  "lat": 127.038321,
  "lng": 36.928508
 },
 {
  "id": 1179,
  "name": "서천군보건소",
  "address": "충청남도 서천군 서천읍 사곡길 26",
  "phone": "041-950-5681",
  "lat": 126.689661,
  "lng": 36.0822149
 },
 {
  "id": 1180,
  "name": "서해의원",
  "address": "충청남도 서천군 서천읍 서천로 184",
  "phone": "041-951-8282",
  "lat": 126.687587,
  "lng": 36.0844174
 },
 {
  "id": 1181,
  "name": "성모외과의원",
  "address": "충청남도 아산시 온천대로 1542-5 (온천동)",
  "phone": "041-545-4600",
  "lat": 127.009034,
  "lng": 36.7799402
 },
 {
  "id": 1182,
  "name": "성모의원",
  "address": "충청남도 천안시 동남구 충절로 282 (구성동)",
  "phone": "041-523-5230",
  "lat": 127.160068,
  "lng": 36.7937117
 },
 {
  "id": 1183,
  "name": "성보의원",
  "address": "충청남도 공주시 무령로 303",
  "phone": "041-856-8275",
  "lat": 127.133497,
  "lng": 36.456423
 },
 {
  "id": 1184,
  "name": "성심외과 의원",
  "address": "세종특별자치시 조치원읍 새내로 113",
  "phone": "044-865-3616",
  "lat": 127.297625,
  "lng": 36.6019338
 },
 {
  "id": 1185,
  "name": "성심의원",
  "address": "충청남도 서천군 장항읍 장항로171번길 17",
  "phone": "041-956-4890",
  "lat": 126.696516,
  "lng": 36.0120006
 },
 {
  "id": 1186,
  "name": "성심의원",
  "address": "충청남도 천안시 서북구 입장면 입장로 130",
  "phone": "041-583-2468",
  "lat": 127.22201,
  "lng": 36.912666
 },
 {
  "id": 1187,
  "name": "성연보건지소",
  "address": "충청남도 서산시 성연면 마루들길 15",
  "phone": "041-662-8048",
  "lat": 126.460844,
  "lng": 36.8390316
 },
 {
  "id": 1188,
  "name": "성요셥병원",
  "address": "충청남도 부여군 부여읍 사비로 78",
  "phone": "041-835-7582",
  "lat": 126.911005,
  "lng": 36.2794986
 },
 {
  "id": 1189,
  "name": "성환서울의원",
  "address": "충청남도 천안시 서북구 성환읍 성환중앙로 37",
  "phone": "041-581-4276",
  "lat": 127.129821,
  "lng": 36.9172167
 },
 {
  "id": 1190,
  "name": "성환연합의원",
  "address": "충청남도 천안시 서북구 성환읍 성환1로 228",
  "phone": "041-581-0119",
  "lat": 127.12837,
  "lng": 36.9149205
 },
 {
  "id": 1191,
  "name": "세종 보건소",
  "address": "세종특별자치시 조치원읍 건강길 16",
  "phone": "044-301-2027",
  "lat": 127.296476,
  "lng": 36.6055412
 },
 {
  "id": 1192,
  "name": "순천향대학교 환경산업의학연구소의원",
  "address": "충청남도 천안시 서북구 광장로 215",
  "phone": "041-529-1212",
  "lat": 127.108456,
  "lng": 36.7981488
 },
 {
  "id": 1193,
  "name": "순풍외과",
  "address": "충청남도 공주시 웅진로 211 (산성동)",
  "phone": "041-857-8600",
  "lat": 127.124689,
  "lng": 36.4593342
 },
 {
  "id": 1194,
  "name": "신내과",
  "address": "충청남도 서산시 대산읍 구진천로 12",
  "phone": "041-681-4773",
  "lat": 126.434393,
  "lng": 36.9382166
 },
 {
  "id": 1195,
  "name": "신례원의원",
  "address": "충청남도 예산군 예산읍 창말로 34",
  "phone": "041-334-2192",
  "lat": 126.842305,
  "lng": 36.7285968
 },
 {
  "id": 1196,
  "name": "아산시보건소",
  "address": "충청남도 아산시 번영로224번길 20",
  "phone": "041-537-3404",
  "lat": 127.014602,
  "lng": 36.7826881
 },
 {
  "id": 1197,
  "name": "연세나무병원",
  "address": "충청남도 아산시 배방읍 고속철대로 69",
  "phone": "041-537-0000",
  "lat": 127.107639,
  "lng": 36.7904901
 },
 {
  "id": 1198,
  "name": "연세정형외과",
  "address": "충청남도 서천군 장항읍 장항로 183",
  "phone": "041-956-3836",
  "lat": 126.698049,
  "lng": 36.0113016
 },
 {
  "id": 1199,
  "name": "연합외과의원",
  "address": "충청남도 보령시 주공로 13",
  "phone": "041-931-7582",
  "lat": 126.602608,
  "lng": 36.3450952
 },
 {
  "id": 1200,
  "name": "열린내과병원",
  "address": "충청남도 당진시 당진중앙1로 179",
  "phone": "041-351-3242",
  "lat": 126.632975,
  "lng": 36.8969901
 },
 {
  "id": 1201,
  "name": "열린의원",
  "address": "충청남도 보령시 목장3길 10",
  "phone": "041-931-8700",
  "lat": 126.598173,
  "lng": 36.3496132
 },
 {
  "id": 1202,
  "name": "예산공제회의원",
  "address": "충청남도 예산군 오가면 국사봉로 500",
  "phone": "041-333-2676",
  "lat": 126.788188,
  "lng": 36.6726427
 },
 {
  "id": 1203,
  "name": "예산명지병원",
  "address": "충청남도 예산군 예산읍 신례원로 26",
  "phone": "041-334-0140",
  "lat": 126.834199,
  "lng": 36.713546
 },
 {
  "id": 1204,
  "name": "예산군보건소",
  "address": "충청남도 예산군 예산읍 아리랑로 147",
  "phone": "041-339-8022",
  "lat": 126.845694,
  "lng": 36.6858792
 },
 {
  "id": 1205,
  "name": "예일병원",
  "address": "충청남도 천안시 서북구 충무로 129 (쌍용동)",
  "phone": "041-571-7000",
  "lat": 127.121726,
  "lng": 36.7930538
 },
 {
  "id": 1206,
  "name": "우리의원",
  "address": "충청남도 당진시 당진중앙2로 103-8 (읍내동, 진원스타타워)",
  "phone": "041-358-1369",
  "lat": 126.630508,
  "lng": 36.8945044
 },
 {
  "id": 1207,
  "name": "운산보건지소",
  "address": "충청남도 서산시 운산면 운암로 1016",
  "phone": "041-663-2044",
  "lat": 126.580629,
  "lng": 36.8106628
 },
 {
  "id": 1208,
  "name": "유웅선내과의원",
  "address": "충청남도 천안시 서북구 쌍용대로 45",
  "phone": "041-574-5333",
  "lat": 127.131309,
  "lng": 36.8015773
 },
 {
  "id": 1209,
  "name": "윤정형외과",
  "address": "충청남도 공주시 무령로 257 (산성동)",
  "phone": "041-853-2827",
  "lat": 127.128533,
  "lng": 36.4562752
 },
 {
  "id": 1210,
  "name": "을지흉부외과",
  "address": "세종특별자치시 조치원읍 새내10길 12",
  "phone": "044-862-2141",
  "lat": 127.299172,
  "lng": 36.6002448
 },
 {
  "id": 1211,
  "name": "음암보건지소",
  "address": "충청남도 서산시 음암면 도당로 26",
  "phone": "041-663-5511",
  "lat": 126.519541,
  "lng": 36.8018075
 },
 {
  "id": 1212,
  "name": "의료법인 계룡의료재단 계룡병원",
  "address": "충청남도 계룡시 계룡대로 295 (금암동)",
  "phone": "041-551-8275",
  "lat": 127.256989,
  "lng": 36.272654
 },
 {
  "id": 1213,
  "name": "이내과의원",
  "address": "세종특별자치시 조치원읍 조치원로 31",
  "phone": "044-865-3571",
  "lat": 127.300083,
  "lng": 36.6017565
 },
 {
  "id": 1214,
  "name": "인지보건지소",
  "address": "충청남도 서산시 인지면 무학로 1673",
  "phone": "041-662-1044",
  "lat": 126.425752,
  "lng": 36.7524519
 },
 {
  "id": 1215,
  "name": "임채남내과의원",
  "address": "충청남도 보령시 번영로 38",
  "phone": "041-935-7582",
  "lat": 126.592106,
  "lng": 36.3509082
 },
 {
  "id": 1216,
  "name": "전의의원",
  "address": "세종특별자치시 전의면 읍내길 13",
  "phone": "044-863-2828",
  "lat": 127.204284,
  "lng": 36.6804464
 },
 {
  "id": 1217,
  "name": "정외과의원",
  "address": "충청남도 당진시 당진중앙1로 173-4",
  "phone": "041-350-5000",
  "lat": 126.632842,
  "lng": 36.8967644
 },
 {
  "id": 1218,
  "name": "제일방사선과의원",
  "address": "충청남도 천안시 동남구 충절로 6",
  "phone": "041-553-9600",
  "lat": 127.157934,
  "lng": 36.8184679
 },
 {
  "id": 1219,
  "name": "조외과의원",
  "address": "충청남도 예산군 예산읍 예산로 86",
  "phone": "041-332-4001",
  "lat": 126.834831,
  "lng": 36.6801243
 },
 {
  "id": 1220,
  "name": "중앙의원",
  "address": "충청남도 공주시 유구읍 유구초교길 31-6",
  "phone": "041-841-4631",
  "lat": 126.950919,
  "lng": 36.5530078
 },
 {
  "id": 1221,
  "name": "지곡보건지소",
  "address": "충청남도 서산시 지곡면 화천2길 46-10",
  "phone": "041-662-9066",
  "lat": 126.435212,
  "lng": 36.8623226
 },
 {
  "id": 1222,
  "name": "진정형외과의원",
  "address": "충청남도 천안시 동남구 풍세로 1008",
  "phone": "041-554-8275",
  "lat": 127.15305,
  "lng": 36.7971361
 },
 {
  "id": 1223,
  "name": "참좋은 연세외과의원",
  "address": "충청남도 홍성군 광천읍 광천로 320",
  "phone": "041-642-2323",
  "lat": 126.626013,
  "lng": 36.5024773
 },
 {
  "id": 1224,
  "name": "천안누리정형외과",
  "address": "충청남도 천안시 동남구 충무로 421",
  "phone": "041-552-7500",
  "lat": 127.15201,
  "lng": 36.7985972
 },
 {
  "id": 1225,
  "name": "천안동남구보건소",
  "address": "충청남도 천안시 동남구 버들로 40",
  "phone": "041-521-5045",
  "lat": 127.151433,
  "lng": 36.8072035
 },
 {
  "id": 1226,
  "name": "천안삼성SDI부속의원(직원한정)",
  "address": "충청남도 천안시 서북구 번영로 467",
  "phone": "041-560-3958",
  "lat": 127.11424,
  "lng": 36.8450188
 },
 {
  "id": 1227,
  "name": "천안서북구보건소",
  "address": "충청남도 천안시 서북구 번영로 156",
  "phone": "041-521-2552",
  "lat": 127.11405,
  "lng": 36.8148681
 },
 {
  "id": 1228,
  "name": "천안우리병원",
  "address": "충청남도 천안시 동남구 남부대로 350",
  "phone": "041-572-8119",
  "lat": 127.155774,
  "lng": 36.7809667
 },
 {
  "id": 1229,
  "name": "천안중앙병원",
  "address": "충청남도 천안시 서북구 성정공원1길 9-7 6층",
  "phone": "041-561-0245",
  "lat": 127.138435,
  "lng": 36.8264217
 },
 {
  "id": 1230,
  "name": "천안충무병원",
  "address": "충청남도 천안시 서북구 다가말3길 8",
  "phone": "041-570-7555",
  "lat": 127.131627,
  "lng": 36.7974679
 },
 {
  "id": 1231,
  "name": "청양군보건의료원",
  "address": "충청남도 청양군 청양읍 칠갑산로7길 54",
  "phone": "041-940-4589",
  "lat": 126.804917,
  "lng": 36.4546492
 },
 {
  "id": 1232,
  "name": "최순규의원",
  "address": "충청남도 아산시 충무로 11",
  "phone": "041-546-6398",
  "lat": 127.004239,
  "lng": 36.7824185
 },
 {
  "id": 1233,
  "name": "충남의원",
  "address": "충청남도 천안시 동남구 대흥로 251 (대흥동)",
  "phone": "041-551-6802",
  "lat": 127.148235,
  "lng": 36.8105146
 },
 {
  "id": 1234,
  "name": "충청남도천안의료원",
  "address": "충청남도 천안시 동남구 충절로 537",
  "phone": "041-570-7200",
  "lat": 127.179946,
  "lng": 36.775364
 },
 {
  "id": 1235,
  "name": "카톨릭정형외과의원",
  "address": "충청남도 천안시 서북구 봉정로 370",
  "phone": "041-621-8275",
  "lat": 127.145804,
  "lng": 36.8348834
 },
 {
  "id": 1236,
  "name": "큰나무정형외과",
  "address": "충청남도 아산시 배방읍 모산로 181",
  "phone": "041-543-8275",
  "lat": 127.062823,
  "lng": 36.7756083
 },
 {
  "id": 1237,
  "name": "태안군보건의료원",
  "address": "충청남도 태안군 태안읍 서해로 1952-16",
  "phone": "041-671-5315",
  "lat": 126.323072,
  "lng": 36.7517847
 },
 {
  "id": 1238,
  "name": "팔봉보건지소",
  "address": "충청남도 서산시 팔봉면 팔봉1로 392",
  "phone": "041-662-6007",
  "lat": 126.349998,
  "lng": 36.811993
 },
 {
  "id": 1239,
  "name": "푸른외과의원",
  "address": "충청남도 홍성군 홍성읍 내포로 18",
  "phone": "041-631-5500",
  "lat": 126.665818,
  "lng": 36.6002705
 },
 {
  "id": 1240,
  "name": "푸른정형외과",
  "address": "충청남도 보령시 보령남로 9",
  "phone": "041-931-2386",
  "lat": 126.599996,
  "lng": 36.3440321
 },
 {
  "id": 1241,
  "name": "하나통증크리닉",
  "address": "충청남도 천안시 동남구 옛시청길 14",
  "phone": "041-573-5001",
  "lat": 127.148743,
  "lng": 36.8068284
 },
 {
  "id": 1242,
  "name": "한마음 의원",
  "address": "충청남도 당진시 신평길 24-9",
  "phone": "041-363-8800",
  "lat": 126.764912,
  "lng": 36.8829986
 },
 {
  "id": 1243,
  "name": "한마음정형외과의원",
  "address": "충청남도 천안시 동남구 충절로 25",
  "phone": "041-562-0777",
  "lat": 127.158501,
  "lng": 36.816638
 },
 {
  "id": 1244,
  "name": "한산의원",
  "address": "충청남도 서천군 한산면 한산모시길 26-1",
  "phone": "041-951-0002",
  "lat": 126.803578,
  "lng": 36.0840072
 },
 {
  "id": 1245,
  "name": "한서대학교의원",
  "address": "충청남도 서산시 율지3로 31",
  "phone": "041-660-1850",
  "lat": 126.463021,
  "lng": 36.7778662
 },
 {
  "id": 1246,
  "name": "한솔메디컬의원",
  "address": "충청남도 천안시 서북구 불당대로 269",
  "phone": "041-577-7767",
  "lat": 127.125928,
  "lng": 36.8002944
 },
 {
  "id": 1247,
  "name": "한양정형외과의원",
  "address": "충청남도 천안시 서북구 직산읍 천안대로 1519",
  "phone": "041-583-9999",
  "lat": 127.146185,
  "lng": 36.8762343
 },
 {
  "id": 1248,
  "name": "한일의원",
  "address": "충청남도 논산시 중앙로 485",
  "phone": "041-732-1900",
  "lat": 127.083347,
  "lng": 36.2059495
 },
 {
  "id": 1249,
  "name": "한일의원",
  "address": "충청남도 아산시 온천대로 1419",
  "phone": "041-531-4200",
  "lat": 126.995882,
  "lng": 36.7835088
 },
 {
  "id": 1250,
  "name": "해미보건지소",
  "address": "충청남도 서산시 해미면 남문2로 109",
  "phone": "041-688-2751",
  "lat": 126.544681,
  "lng": 36.7138686
 },
 {
  "id": 1251,
  "name": "허내과의원",
  "address": "충청남도 태안군 태안읍 독샘로 16",
  "phone": "041-674-2150",
  "lat": 126.297756,
  "lng": 36.7515295
 },
 {
  "id": 1252,
  "name": "현대의원",
  "address": "충청남도 금산군 금산읍 향군길 17-1",
  "phone": "041-753-3210",
  "lat": 127.491433,
  "lng": 36.1059241
 },
 {
  "id": 1253,
  "name": "현대정형외과",
  "address": "충청남도 계룡시 엄사면 엄사중앙로 96",
  "phone": "041-841-7582",
  "lat": 127.242361,
  "lng": 36.289158
 },
 {
  "id": 1254,
  "name": "현정형외과",
  "address": "충청남도 보령시 원동1길 30-12",
  "phone": "041-933-7588",
  "lat": 126.596374,
  "lng": 36.3507696
 },
 {
  "id": 1255,
  "name": "혜화의원",
  "address": "충청남도 천안시 서북구 노태산로 4",
  "phone": "041-521-7000",
  "lat": 127.127773,
  "lng": 36.82519
 },
 {
  "id": 1256,
  "name": "홍성의료원",
  "address": "충청남도 홍성군 홍성읍 조양로 224",
  "phone": "041-630-6114",
  "lat": 126.674363,
  "lng": 36.5989426
 },
 {
  "id": 1257,
  "name": "화인메트로병원",
  "address": "충청남도 천안시 서북구 원두정 3길 37",
  "phone": "041-622-3223",
  "lat": 127.137226,
  "lng": 36.8334787
 },
 {
  "id": 1258,
  "name": "효성세종병원",
  "address": "세종특별자치시 조치원읍 새내1길 6",
  "phone": "044-867-2100",
  "lat": 127.298477,
  "lng": 36.5969214
 },
 {
  "id": 1259,
  "name": "희망내과의원",
  "address": "충청남도 공주시 번영1로 114",
  "phone": "041-881-8575",
  "lat": 127.140055,
  "lng": 36.4739882
 },
 {
  "id": 1260,
  "name": "서귀포시 동부보건소",
  "address": "서귀포시 남원읍 태위로 527 (남원리 2359-1)",
  "phone": "064-760-6111",
  "lat": 126.703497,
  "lng": 33.2756044
 },
 {
  "id": 1261,
  "name": "서귀포시 서부보건소",
  "address": "서귀포시 대정읍 최남단해안로15번길 12 (하모리 767-8)",
  "phone": "064-760-6201",
  "lat": 126.253411,
  "lng": 33.2186496
 },
 {
  "id": 1262,
  "name": "서귀포시보건소",
  "address": "서귀포시 중앙로101번길 52 (서홍동 447-3)",
  "phone": "064-760-6001",
  "lat": 126.555312,
  "lng": 33.2532785
 },
 {
  "id": 1263,
  "name": "서귀포의료원",
  "address": "서귀포시 장수로 47 (동홍동 1530-2)",
  "phone": "064-730-3000",
  "lat": 126.563873,
  "lng": 33.2559056
 },
 {
  "id": 1264,
  "name": "소길의원",
  "address": "제주시 애월읍 평화로 2072(제주운전면허시험장)",
  "phone": "064-799-5606",
  "lat": 126.388114,
  "lng": 33.4060731
 },
 {
  "id": 1265,
  "name": "제주대학교병원",
  "address": "제주시 아란13길 15 (아라1동 1753-3)",
  "phone": "064-717-1114",
  "lat": 126.54558,
  "lng": 33.4672038
 },
 {
  "id": 1266,
  "name": "제주보건소",
  "address": "제주시 연삼로 264 (도남동 567-1)",
  "phone": "064-728-4010",
  "lat": 126.520294,
  "lng": 33.4917396
 },
 {
  "id": 1267,
  "name": "제주시 동부보건소",
  "address": "제주시 구좌읍 김녕로 14길 6 (김녕리 1697-1)",
  "phone": "064-728-4180",
  "lat": 126.750989,
  "lng": 33.5546306
 },
 {
  "id": 1268,
  "name": "제주시 서부보건소",
  "address": "제주시 한림읍 강구로 5 (한림리 966-1)",
  "phone": "064-728-4111",
  "lat": 126.269524,
  "lng": 33.4123904
 },
 {
  "id": 1269,
  "name": "제주중앙병원",
  "address": "제주시 월랑로 91 (이호2동 22)",
  "phone": "064-786-7000",
  "lat": 126.470256,
  "lng": 33.4920942
 },
 {
  "id": 1270,
  "name": "한국건강관리협회 제주지부 건강증진의원",
  "address": "제주특별자치도 제주시 연북로 111 (연동 1375)",
  "phone": "064-740-0200",
  "lat": 126.493373,
  "lng": 33.4821475
 },
 {
  "id": 1271,
  "name": "한국병원",
  "address": "제주시 서광로 193 (삼도1동 518)",
  "phone": "064-750-0000",
  "lat": 126.516878,
  "lng": 33.5003996
 },
 {
  "id": 1272,
  "name": "한라병원",
  "address": "제주시 도령로 65 (연동 1963-2)",
  "phone": "064-740-5000",
  "lat": 126.484783,
  "lng": 33.4902082
 },
 {
  "id": 1273,
  "name": "한마음병원",
  "address": "제주시 연신로 52 (이도2동 1941-3)",
  "phone": "064-750-9000",
  "lat": 126.546394,
  "lng": 33.4966617
 }
]